[{"datasetid": "liste-des-cafes-a-un-euro", "recordid": "e72380d5f0a63340f419e0833cbfffe2e4db44b4", "fields": {"salle": "-", "nom": "Chez Prune", "comptoir": 1.0, "arrondissement": 75010, "adresse": "36 rue Beaurepaire 75010 Paris", "terrasse": "-", "maj": "2012-07-03", "lat_lon": [48.8715822, 2.3644886]}, "geometry": {"type": "Point", "coordinates": [2.3644886, 48.8715822]}},{"datasetid": "liste-des-cafes-a-un-euro", "recordid": "59ad61f09784f52c0afb18a8e3d7ddd34acfe1d6", "fields": {"salle": "-", "nom": "La cantine de Zo\u00e9", "comptoir": 1.0, "arrondissement": 75010, "adresse": "136 rue du Faubourg poissonni\u00e8re 75010 Paris", "terrasse": "-", "maj": "2012-07-03", "lat_lon": [48.8806562, 2.3499506]}, "geometry": {"type": "Point", "coordinates": [2.3499506, 48.8806562]}},{"datasetid": "liste-des-cafes-a-un-euro", "recordid": "527b97c6d565c58c7a97985486bbf064f0452ba4", "fields": {"salle": "-", "nom": "Le sully", "comptoir": 1.0, "arrondissement": 75010, "adresse": "13 rue du Faubourg Saint Denis 75010 Paris", "terrasse": "-", "maj": "2012-06-27", "lat_lon": [48.8783988, 2.3570365]}, "geometry": {"type": "Point", "coordinates": [2.3570365, 48.8783988]}},{"datasetid": "liste-des-cafes-a-un-euro", "recordid": "15f0ab50d651f25cff54cdc55d855265f63c7e4f", "fields": {"salle": "-", "nom": "En attendant l'or", "comptoir": 1.0, "arrondissement": 75011, "adresse": "3 rue Faidherbe 75011 Paris", "terrasse": "-", "maj": "2012-06-27", "lat_lon": [48.8508323, 2.3840854]}, "geometry": {"type": "Point", "coordinates": [2.3840854, 48.8508323]}},{"datasetid": "liste-des-cafes-a-un-euro", "recordid": "770a063ba2c9c4fa96056983e63a6f644cf931de", "fields": {"salle": "-", "nom": "Extra old caf\u00e9", "comptoir": 1.0, "arrondissement": 75011, "adresse": "307 fg saint Antoine 75011 Paris", "terrasse": "-", "maj": "2012-07-03", "lat_lon": [48.8490041, 2.392644]}, "geometry": {"type": "Point", "coordinates": [2.392644, 48.8490041]}},{"datasetid": "liste-des-cafes-a-un-euro", "recordid": "1fa0c1d0c6080b490fdbb5ac5a13c112cfe3ebb6", "fields": {"salle": "-", "nom": "Bistrot Saint-Antoine", "comptoir": 1.0, "arrondissement": 75012, "adresse": "58 rue du Fbg Saint-Antoine 75012 Paris", "terrasse": "-", "maj": "2012-06-27", "lat_lon": [48.8519278, 2.3732383]}, "geometry": {"type": "Point", "coordinates": [2.3732383, 48.8519278]}},{"datasetid": "liste-des-cafes-a-un-euro", "recordid": "a6363e4e245078d5a94ec8e6822d56b7a4bf4527", "fields": {"salle": "-", "nom": "Le Killy Jen", "comptoir": 1.0, "arrondissement": 75012, "adresse": "28 bis boulevard Diderot 75012 Paris", "terrasse": "-", "maj": "2012-06-27", "lat_lon": [48.8465821, 2.3800398]}, "geometry": {"type": "Point", "coordinates": [2.3800398, 48.8465821]}},{"datasetid": "liste-des-cafes-a-un-euro", "recordid": "834573420241bc660eba1690dafaf11558683410", "fields": {"salle": "-", "nom": "L'\u00c9cir", "comptoir": 1.0, "arrondissement": 75014, "adresse": "59 Boulevard Saint-Jacques 75014 Paris", "terrasse": "-", "maj": "2012-09-10", "lat_lon": [48.833524, 2.3342521]}, "geometry": {"type": "Point", "coordinates": [2.3342521, 48.833524]}},{"datasetid": "liste-des-cafes-a-un-euro", "recordid": "4cab263f72ffe984e94baa8b257c78051d3e990f", "fields": {"salle": "-", "nom": "Au Vin Des Rues", "comptoir": 1.0, "arrondissement": 75014, "adresse": "21 rue Boulard 75014 Paris", "terrasse": "-", "maj": "2012-06-27", "lat_lon": [48.8331593, 2.3283538]}, "geometry": {"type": "Point", "coordinates": [2.3283538, 48.8331593]}},{"datasetid": "liste-des-cafes-a-un-euro", "recordid": "32d33d491f09d3cf54bc55881b0f58ef842d43a7", "fields": {"salle": "1", "nom": "Le caf\u00e9 des amis", "comptoir": 1.0, "arrondissement": 75015, "adresse": "125 rue Blomet 75015 Paris", "terrasse": "-", "maj": "2012-10-22", "lat_lon": [48.8397592, 2.2969045]}, "geometry": {"type": "Point", "coordinates": [2.2969045, 48.8397592]}},{"datasetid": "liste-des-cafes-a-un-euro", "recordid": "cdc54bda396a002952dbae686b4978cfaffa4cde", "fields": {"salle": "1", "nom": "Le drapeau de la fidelit\u00e9", "comptoir": 1.0, "arrondissement": 75015, "adresse": "21 rue Copreaux 75015 Paris", "terrasse": "-", "maj": "2012-10-22", "lat_lon": [48.841628, 2.3070058]}, "geometry": {"type": "Point", "coordinates": [2.3070058, 48.841628]}},{"datasetid": "liste-des-cafes-a-un-euro", "recordid": "51f4d2582c7d81ad4bb990cfea9355c4b16d0dbc", "fields": {"salle": "-", "nom": "Le Parc Vaugirard", "comptoir": 1.0, "arrondissement": 75015, "adresse": "358 rue de Vaugirard 75015 Paris", "terrasse": "-", "maj": "2012-06-27", "lat_lon": [48.8353891, 2.2924255]}, "geometry": {"type": "Point", "coordinates": [2.2924255, 48.8353891]}},{"datasetid": "liste-des-cafes-a-un-euro", "recordid": "aa24219aa4a494256c01137d121d57649e793a1c", "fields": {"salle": "-", "nom": "Caf\u00e9 antoine", "comptoir": 1.0, "arrondissement": 75016, "adresse": "17 rue Jean de la Fontaine 75016 Paris", "terrasse": "-", "maj": "2012-06-27", "lat_lon": [48.8516716, 2.2738955]}, "geometry": {"type": "Point", "coordinates": [2.2738955, 48.8516716]}},{"datasetid": "liste-des-cafes-a-un-euro", "recordid": "0515adc4133e0a9699af37cd45d6051b7b4670c8", "fields": {"salle": "1", "nom": "Le BB (Bouchon des Batignolles)", "comptoir": 1.0, "arrondissement": 75017, "adresse": "2 rue Lemercier 75017 Paris", "terrasse": "-", "maj": "2012-10-22", "lat_lon": [48.8889861, 2.3195392]}, "geometry": {"type": "Point", "coordinates": [2.3195392, 48.8889861]}},{"datasetid": "liste-des-cafes-a-un-euro", "recordid": "cbbd236156bedcea30d19617d880211618412858", "fields": {"salle": "-", "nom": "Petits Freres des Pauvres", "comptoir": 0.45, "arrondissement": 75017, "adresse": "47 rue de Batignolles 75017 Paris", "terrasse": "-", "maj": "2012-11-05", "lat_lon": [48.8856383, 2.3195817]}, "geometry": {"type": "Point", "coordinates": [2.3195817, 48.8856383]}},{"datasetid": "liste-des-cafes-a-un-euro", "recordid": "4f9b63615ab3b4baa522950ffaef82a3dfa65551", "fields": {"salle": "1", "nom": "Institut des Cultures d'Islam", "comptoir": 1.0, "arrondissement": 75018, "adresse": "19-23 rue L\u00e9on 75018 Paris", "terrasse": "-", "maj": "2012-10-22", "lat_lon": [48.8875966, 2.3534752]}, "geometry": {"type": "Point", "coordinates": [2.3534752, 48.8875966]}},{"datasetid": "liste-des-cafes-a-un-euro", "recordid": "063564c9aae3c250b207662f17dcd34b1ecfd85b", "fields": {"salle": "-", "nom": "L'Olive", "comptoir": 1.0, "arrondissement": 75018, "adresse": "8 rue L'Olive 75018 Paris", "terrasse": "-", "maj": "2012-06-27", "lat_lon": [48.8906792, 2.3612628]}, "geometry": {"type": "Point", "coordinates": [2.3612628, 48.8906792]}},{"datasetid": "liste-des-cafes-a-un-euro", "recordid": "1ac34a3db76854160edf2e6653ffdae958505a9a", "fields": {"salle": "1", "nom": "Populettes", "comptoir": 1.0, "arrondissement": 75018, "adresse": "86 bis rue Riquet 75018 Paris", "terrasse": "-", "maj": "2012-10-22", "lat_lon": [48.8900361, 2.3622647]}, "geometry": {"type": "Point", "coordinates": [2.3622647, 48.8900361]}},{"datasetid": "liste-des-cafes-a-un-euro", "recordid": "03564ba14fe8681901e1153cb9b00dc274f5c924", "fields": {"salle": "-", "nom": "Caf\u00e9 Pistache", "comptoir": 1.0, "arrondissement": 75001, "adresse": "9 rue des petits champs 75001 Paris", "terrasse": "-", "maj": "2012-06-27", "lat_lon": [48.8662669, 2.3387484]}, "geometry": {"type": "Point", "coordinates": [2.3387484, 48.8662669]}},{"datasetid": "liste-des-cafes-a-un-euro", "recordid": "f4e884e1ef1297afb190f36827a25f5d07702c2b", "fields": {"salle": "-", "nom": "Ragueneau", "comptoir": 1.0, "arrondissement": 75001, "adresse": "202 rue Saint Honor\u00e9 75001 Paris", "terrasse": "-", "maj": "2012-11-05", "lat_lon": [48.8627103, 2.3377012]}, "geometry": {"type": "Point", "coordinates": [2.3377012, 48.8627103]}},{"datasetid": "liste-des-cafes-a-un-euro", "recordid": "773a430ebdcecb89f9c5e8810ccd43cd2677c7fa", "fields": {"salle": "-", "nom": "Au panini de la place", "comptoir": 1.0, "arrondissement": 75020, "adresse": "47 rue Belgrand 75020 Paris", "terrasse": "-", "maj": "2012-07-03", "lat_lon": [48.8646193, 2.4080598]}, "geometry": {"type": "Point", "coordinates": [2.4080598, 48.8646193]}},{"datasetid": "liste-des-cafes-a-un-euro", "recordid": "f7ecf5d1308fa98135373b5533cb954e8ee28c41", "fields": {"salle": "-", "nom": "La Cagnotte", "comptoir": 1.0, "arrondissement": 75020, "adresse": "13 Rue Jean-Baptiste Dumay 75019 Paris", "terrasse": "-", "maj": "2012-06-27", "lat_lon": [48.8745379, 2.3877502]}, "geometry": {"type": "Point", "coordinates": [2.3877502, 48.8745379]}},{"datasetid": "liste-des-cafes-a-un-euro", "recordid": "cce02fc31f6110da2dceb67bfeb1641f0a41d5bf", "fields": {"salle": "-", "nom": "Melting Pot", "comptoir": 1.0, "arrondissement": 75020, "adresse": "3 rue de Lagny 75020 Paris", "terrasse": "-", "maj": "2012-06-27", "lat_lon": [48.8488784, 2.3999675]}, "geometry": {"type": "Point", "coordinates": [2.3999675, 48.8488784]}},{"datasetid": "liste-des-cafes-a-un-euro", "recordid": "1b812727fa965c5cb3521280d569797f73c94043", "fields": {"salle": "-", "nom": "Au cerceau d'or", "comptoir": 1.0, "arrondissement": 75002, "adresse": "129 boulevard sebastopol 75002 Paris", "terrasse": "-", "maj": "2012-06-27", "lat_lon": [48.8680642, 2.3533347]}, "geometry": {"type": "Point", "coordinates": [2.3533347, 48.8680642]}},{"datasetid": "liste-des-cafes-a-un-euro", "recordid": "455f2585d27b987b461783d82e1c2d0ed372d1a4", "fields": {"salle": "1", "nom": "La Cordonnerie", "comptoir": 1.0, "arrondissement": 75002, "adresse": "142 Rue Saint-Denis 75002 Paris 75002 Paris", "terrasse": "-", "maj": "2012-10-22", "lat_lon": [48.8626681, 2.3495752]}, "geometry": {"type": "Point", "coordinates": [2.3495752, 48.8626681]}},{"datasetid": "liste-des-cafes-a-un-euro", "recordid": "fc14479ddcf1315a65d69b8e02642c7fb0d31a64", "fields": {"salle": "-", "nom": "Le Caf\u00e9 frapp\u00e9", "comptoir": 1.0, "arrondissement": 75002, "adresse": "95 rue Montmartre 75002 Paris", "terrasse": "-", "maj": "2012-09-10", "lat_lon": [48.8679433, 2.3436027]}, "geometry": {"type": "Point", "coordinates": [2.3436027, 48.8679433]}},{"datasetid": "liste-des-cafes-a-un-euro", "recordid": "4915963708fe378f1dc2558be312592731861b3b", "fields": {"salle": "-", "nom": "La Perle", "comptoir": 1.0, "arrondissement": 75003, "adresse": "78 rue vieille du temple 75003 Paris", "terrasse": "-", "maj": "2012-09-10", "lat_lon": [48.8597859, 2.3605621]}, "geometry": {"type": "Point", "coordinates": [2.3605621, 48.8597859]}},{"datasetid": "liste-des-cafes-a-un-euro", "recordid": "663c0d7331273a261a2a3f1061956ec4702fff57", "fields": {"salle": "-", "nom": "Chez Oscar", "comptoir": 1.0, "arrondissement": 75004, "adresse": "11/13 boulevard Beaumarchais 75004 Paris", "terrasse": "-", "maj": "2012-06-27", "lat_lon": [48.8549497, 2.3687054]}, "geometry": {"type": "Point", "coordinates": [2.3687054, 48.8549497]}},{"datasetid": "liste-des-cafes-a-un-euro", "recordid": "f43686d1447d7c8cb5ede2b162161276888c56a9", "fields": {"salle": "-", "nom": "Le Caf\u00e9 Livres", "comptoir": 1.0, "arrondissement": 75004, "adresse": "10 rue Saint Martin 75004 Paris", "terrasse": "-", "maj": "2012-09-10", "lat_lon": [48.8577394, 2.3496332]}, "geometry": {"type": "Point", "coordinates": [2.3496332, 48.8577394]}},{"datasetid": "liste-des-cafes-a-un-euro", "recordid": "6f5b89fa71368cb745e0570b0f2921f8b581c3a0", "fields": {"salle": "-", "nom": "L'avant comptoir", "comptoir": 1.0, "arrondissement": 75006, "adresse": "3 carrefour de l'Od\u00e9on 75006 Paris", "terrasse": "-", "maj": "2012-07-03", "lat_lon": [48.8520876, 2.338676]}, "geometry": {"type": "Point", "coordinates": [2.338676, 48.8520876]}},{"datasetid": "liste-des-cafes-a-un-euro", "recordid": "d644c171d482d40803f3048fa58151b5ebbc5036", "fields": {"salle": "-", "nom": "Cafe de grenelle", "comptoir": 1.0, "arrondissement": 75007, "adresse": "188 rue de Grenelle 75007 Paris", "terrasse": "-", "maj": "2012-09-10", "lat_lon": [48.8576572, 2.3056389]}, "geometry": {"type": "Point", "coordinates": [2.3056389, 48.8576572]}},{"datasetid": "liste-des-cafes-a-un-euro", "recordid": "29dc05fb81e0975b9573cfbc2413198c9e62f771", "fields": {"salle": "-", "nom": "Caf\u00e9 Varenne", "comptoir": 1.0, "arrondissement": 75007, "adresse": "36 rue de Varenne 75007 Paris", "terrasse": "-", "maj": "2012-06-27", "lat_lon": [48.8541218, 2.3235382]}, "geometry": {"type": "Point", "coordinates": [2.3235382, 48.8541218]}},{"datasetid": "liste-des-cafes-a-un-euro", "recordid": "a161d3700462752c969c73612581b748cfb7ab97", "fields": {"salle": "-", "nom": "Le Malar", "comptoir": 1.0, "arrondissement": 75007, "adresse": "88 rue Saint-Dominique 75007 Paris", "terrasse": "-", "maj": "2012-07-03", "lat_lon": [48.8595534, 2.3064477]}, "geometry": {"type": "Point", "coordinates": [2.3064477, 48.8595534]}},{"datasetid": "liste-des-cafes-a-un-euro", "recordid": "e49766201062db4af69359d83123e71032bd153a", "fields": {"salle": "1", "nom": "O'Breizh", "comptoir": 1.0, "arrondissement": 75008, "adresse": "27 rue de Penthi\u00e8vre 75008 Paris", "terrasse": "-", "maj": "2012-10-22", "lat_lon": [48.8726788, 2.3153603]}, "geometry": {"type": "Point", "coordinates": [2.3153603, 48.8726788]}},{"datasetid": "liste-des-cafes-a-un-euro", "recordid": "6ed702e7a67fb33fd409fdfab74b3e716b03b6f8", "fields": {"salle": "-", "nom": "Le Dellac", "comptoir": 1.0, "arrondissement": 75009, "adresse": "14 rue Rougemont 75009 Paris", "terrasse": "-", "maj": "2012-06-27", "lat_lon": [48.8721138, 2.3461506]}, "geometry": {"type": "Point", "coordinates": [2.3461506, 48.8721138]}},{"datasetid": "liste-des-cafes-a-un-euro", "recordid": "7ca9fac1168bf23a95d1f56ce3b35ed9d24541de", "fields": {"salle": "-", "nom": "Le relais de la victoire", "comptoir": 1.0, "arrondissement": 75009, "adresse": "73 rue de la Victoire 75009 Paris", "terrasse": "-", "maj": "2012-09-10", "lat_lon": [48.8752166, 2.3329602]}, "geometry": {"type": "Point", "coordinates": [2.3329602, 48.8752166]}},{"datasetid": "liste-des-cafes-a-un-euro", "recordid": "84d09a57ea529906f8a3900f2d1fca2f0871abed", "fields": {"salle": "-", "nom": "Caf\u00e9 Varenne", "comptoir": 1.0, "arrondissement": 75007, "adresse": "36 rue de Varenne 75007 Paris", "terrasse": "-", "maj": "2013-08-13", "lat_lon": [48.8541218, 2.3235382]}, "geometry": {"type": "Point", "coordinates": [2.3235382, 48.8541218]}},{"datasetid": "liste-des-cafes-a-un-euro", "recordid": "2f4bdb2da3a7797af1a95f3b1383160fef30ecfe", "fields": {"salle": "-", "nom": "La Brasserie Gait\u00e9", "arrondissement": 75014, "adresse": "3 rue de la Gait\u00e9 75014 Paris", "terrasse": "1", "maj": "2013-08-13", "lat_lon": [48.8396528, 2.3235536]}, "geometry": {"type": "Point", "coordinates": [2.3235536, 48.8396528]}},{"datasetid": "liste-des-cafes-a-un-euro", "recordid": "e3c1d7786393b3364367c307383908712bee9c03", "fields": {"salle": "-", "nom": "Le caf\u00e9 Monde et M\u00e9dias", "comptoir": 1.0, "arrondissement": 75003, "adresse": "Place de la R\u00e9publique 75003 Paris", "terrasse": "-", "maj": "2013-08-14", "lat_lon": [48.86763035, 2.36395290312957]}, "geometry": {"type": "Point", "coordinates": [2.36395290312957, 48.86763035]}},{"datasetid": "liste-des-cafes-a-un-euro", "recordid": "d263959c0e9cc588e82be65cff5df174fa761021", "fields": {"salle": "-", "nom": "Le Zazabar", "comptoir": 1.0, "arrondissement": 75020, "adresse": "116 Rue de M\u00e9nilmontant 75020 Paris", "terrasse": "-", "maj": "2013-08-14", "lat_lon": [48.8701978, 2.3970254]}, "geometry": {"type": "Point", "coordinates": [2.3970254, 48.8701978]}},{"datasetid": "liste-des-cafes-a-un-euro", "recordid": "506e1b4a2fa428ac2453c0eff980b40504fbe79d", "fields": {"salle": "-", "nom": "Caf\u00e9 Clochette", "comptoir": 1.0, "arrondissement": 75010, "adresse": "16 avenue Richerand 75010 Paris", "terrasse": "-", "maj": "2013-08-14", "lat_lon": [48.8724168, 2.3665339]}, "geometry": {"type": "Point", "coordinates": [2.3665339, 48.8724168]}},{"datasetid": "liste-des-cafes-a-un-euro", "recordid": "e65c4aae28a96f899951129d8a41398539a83d8d", "fields": {"salle": "-", "nom": "Le Saint Ren\u00e9", "comptoir": 1.0, "arrondissement": 75020, "adresse": "148 Boulevard de Charonne 75020 Paris", "terrasse": "-", "maj": "2013-08-14", "lat_lon": [48.8553314, 2.3951111]}, "geometry": {"type": "Point", "coordinates": [2.3951111, 48.8553314]}},{"datasetid": "liste-des-cafes-a-un-euro", "recordid": "7d826d6481a6f0a5c78d64ae3c6bdd893046f193", "fields": {"salle": "-", "nom": "La Recoleta au Manoir", "comptoir": 1.0, "arrondissement": 75020, "adresse": "229 avenue Gambetta 75020 Paris", "terrasse": "-", "maj": "2013-08-14", "lat_lon": [48.8747076, 2.4054396]}, "geometry": {"type": "Point", "coordinates": [2.4054396, 48.8747076]}},{"datasetid": "liste-des-cafes-a-un-euro", "recordid": "11f4ac6836d43ed23212bf63ae6ab7e65aeb5ce2", "fields": {"salle": "-", "nom": "La Caravane", "comptoir": 0.9, "arrondissement": 75011, "adresse": "Rue de la Fontaine au Roi 75011 Paris", "terrasse": "-", "maj": "2012-11-05", "lat_lon": [48.869225, 2.3774636]}, "geometry": {"type": "Point", "coordinates": [2.3774636, 48.869225]}},{"datasetid": "liste-des-cafes-a-un-euro", "recordid": "b05229e127f83e306ff1be58fb7c8bb145190304", "fields": {"salle": "-", "nom": "L'empreinte", "comptoir": 1.0, "arrondissement": 75012, "adresse": "54, avenue Daumesnil 75012 Paris", "terrasse": "-", "maj": "2012-07-03", "lat_lon": [48.8453397, 2.3790427]}, "geometry": {"type": "Point", "coordinates": [2.3790427, 48.8453397]}},{"datasetid": "liste-des-cafes-a-un-euro", "recordid": "48e6e0f4f54316eb0f8d15a6876cc69706044537", "fields": {"salle": "1", "nom": "Le Caminito", "maj": "2012-10-22", "arrondissement": 75013, "adresse": "48 rue du Dessous des Berges 75013 Paris", "comptoir": 1.0, "lat_lon": [48.828487, 2.3729249]}, "geometry": {"type": "Point", "coordinates": [2.3729249, 48.828487]}},{"datasetid": "liste-des-cafes-a-un-euro", "recordid": "b05ef95acbd3c70309ed091456579662c63d2c3c", "fields": {"salle": "-", "nom": "Caprice caf\u00e9", "comptoir": 1.0, "arrondissement": 75014, "adresse": "12 avenue Jean Moulin 75014 Paris", "terrasse": "-", "maj": "2012-07-03", "lat_lon": [48.8259048, 2.3223627]}, "geometry": {"type": "Point", "coordinates": [2.3223627, 48.8259048]}},{"datasetid": "liste-des-cafes-a-un-euro", "recordid": "05e6ba44e3d2994e1fc5696173386f1eb7e19f3d", "fields": {"salle": "-", "nom": "le 1 cinq", "comptoir": 1.0, "arrondissement": 75015, "adresse": "172 rue de vaugirard 75015 Paris", "terrasse": "-", "maj": "2012-06-27", "lat_lon": [48.8424669, 2.3108499]}, "geometry": {"type": "Point", "coordinates": [2.3108499, 48.8424669]}},{"datasetid": "liste-des-cafes-a-un-euro", "recordid": "b071ddf4443724754de99f8990b140d371590f68", "fields": {"salle": "-", "nom": "Le Comptoir", "comptoir": 1.0, "arrondissement": 75015, "adresse": "354 bis rue Vaugirard 75015 Paris", "terrasse": "-", "maj": "2012-06-27", "lat_lon": [48.8513483, 2.2825972]}, "geometry": {"type": "Point", "coordinates": [2.2825972, 48.8513483]}},{"datasetid": "liste-des-cafes-a-un-euro", "recordid": "3d5d6b555db53a0b6ab3da5041e8449bf6853e82", "fields": {"salle": "-", "nom": "Le Piquet", "comptoir": 1.0, "arrondissement": 75015, "adresse": "48 avenue de la Motte Picquet 75015 Paris", "terrasse": "-", "maj": "2012-06-27", "lat_lon": [48.8492732, 2.2982299]}, "geometry": {"type": "Point", "coordinates": [2.2982299, 48.8492732]}},{"datasetid": "liste-des-cafes-a-un-euro", "recordid": "8594916a9f5f96bf4be9db246cde1bfe694958e1", "fields": {"salle": "-", "nom": "Le Zinc", "comptoir": 1.0, "arrondissement": 75015, "adresse": "61 avenue de la Motte Picquet 75015 Paris", "terrasse": "-", "maj": "2012-07-03", "lat_lon": [48.8492732, 2.2982299]}, "geometry": {"type": "Point", "coordinates": [2.2982299, 48.8492732]}},{"datasetid": "liste-des-cafes-a-un-euro", "recordid": "101e06dd5f3a7d1a271d4206d127c4bf3da49471", "fields": {"salle": "-", "nom": "Les Artisans", "comptoir": 1.0, "arrondissement": 75015, "adresse": "106 rue Lecourbe 75015 Paris", "terrasse": "-", "maj": "2012-06-27", "lat_lon": [48.8428643, 2.3031959]}, "geometry": {"type": "Point", "coordinates": [2.3031959, 48.8428643]}},{"datasetid": "liste-des-cafes-a-un-euro", "recordid": "dde70673dde4106685c18bd5589d0d52cebf22a3", "fields": {"salle": "-", "nom": "Bagels & Coffee Corner", "comptoir": 1.0, "arrondissement": 75017, "adresse": "Place de Clichy 75017 Paris", "terrasse": "-", "maj": "2012-07-03", "lat_lon": [48.8836473, 2.3273644]}, "geometry": {"type": "Point", "coordinates": [2.3273644, 48.8836473]}},{"datasetid": "liste-des-cafes-a-un-euro", "recordid": "17d167e005215351251e96e43ccdc59a74c1f25d", "fields": {"salle": "1", "nom": "Les caves populaires", "comptoir": 1.0, "arrondissement": 75017, "adresse": "22 rue des Dames 75017 Paris", "terrasse": "-", "maj": "2012-10-22", "lat_lon": [48.8849458, 2.3250141]}, "geometry": {"type": "Point", "coordinates": [2.3250141, 48.8849458]}},{"datasetid": "liste-des-cafes-a-un-euro", "recordid": "903f4b171ce195d7fdfc1414c9c7109008364643", "fields": {"salle": "1", "nom": "Canopy Caf\u00e9 associatif", "comptoir": 1.0, "arrondissement": 75018, "adresse": "19 rue Pajol 75018 Paris", "terrasse": "-", "maj": "2012-10-22", "lat_lon": [48.8919413, 2.3633639]}, "geometry": {"type": "Point", "coordinates": [2.3633639, 48.8919413]}},{"datasetid": "liste-des-cafes-a-un-euro", "recordid": "dc290943b8775981dc7103b560b0112a41c1fc10", "fields": {"salle": "-", "nom": "Le Brio", "comptoir": 1.0, "arrondissement": 75018, "adresse": "216, rue Marcadet 75018 Paris", "terrasse": "-", "maj": "2012-07-03", "lat_lon": [48.8919384, 2.3333864]}, "geometry": {"type": "Point", "coordinates": [2.3333864, 48.8919384]}},{"datasetid": "liste-des-cafes-a-un-euro", "recordid": "d7437285db3cf6807aa92d6e431ff591afba77fb", "fields": {"salle": "-", "nom": "Le bistrot de Ma\u00eblle et Augustin", "comptoir": 1.0, "arrondissement": 75001, "adresse": "42 rue coquill\u00e8re 75001 Paris", "terrasse": "-", "maj": "2012-06-27", "lat_lon": [48.8645346, 2.3410009]}, "geometry": {"type": "Point", "coordinates": [2.3410009, 48.8645346]}},{"datasetid": "liste-des-cafes-a-un-euro", "recordid": "8e8527d10b31a201cd665e34a8d3a917507d6e94", "fields": {"salle": "1", "nom": "Dr\u00f4le d'endroit Montorgueil", "comptoir": 1.0, "arrondissement": 75002, "adresse": "58 rue de Montorgueil 75002 Paris", "terrasse": "-", "maj": "2012-10-22", "lat_lon": [48.8649681, 2.3469273]}, "geometry": {"type": "Point", "coordinates": [2.3469273, 48.8649681]}},{"datasetid": "liste-des-cafes-a-un-euro", "recordid": "76023b441d5d1472807fc63bfc1ecfc72a9e8d60", "fields": {"salle": "1", "nom": "Invitez vous chez nous", "comptoir": 1.0, "arrondissement": 75005, "adresse": "7 rue Ep\u00e9e de Bois 75005 Paris", "terrasse": "-", "maj": "2012-10-22", "lat_lon": [48.8415359, 2.3510102]}, "geometry": {"type": "Point", "coordinates": [2.3510102, 48.8415359]}},{"datasetid": "liste-des-cafes-a-un-euro", "recordid": "7f856eb7b1b2a850b95d28764da8e7f9cec99a01", "fields": {"salle": "1", "nom": "La Br\u00fblerie des Ternes", "comptoir": 1.0, "arrondissement": 75005, "adresse": "111 rue mouffetard 75005 Paris", "terrasse": "-", "maj": "2012-10-18", "lat_lon": [48.8406236, 2.3497527]}, "geometry": {"type": "Point", "coordinates": [2.3497527, 48.8406236]}},{"datasetid": "liste-des-cafes-a-un-euro", "recordid": "b775f8675b8dd3dcb700114842a43c3ccf2c7395", "fields": {"salle": "1", "nom": "La Montagne Sans Genevi\u00e8ve", "arrondissement": 75005, "adresse": "13 Rue du Pot de Fer 75005 Paris", "terrasse": "-", "maj": "2012-10-22", "lat_lon": [48.8431256, 2.3494701]}, "geometry": {"type": "Point", "coordinates": [2.3494701, 48.8431256]}},{"datasetid": "liste-des-cafes-a-un-euro", "recordid": "6e04fef0dd7fca3135af3102dbc97d6889452032", "fields": {"salle": "-", "nom": "Le Descartes", "comptoir": 1.0, "arrondissement": 75005, "adresse": "1 rue Thouin 75005 Paris", "terrasse": "-", "maj": "2012-09-10", "lat_lon": [48.8450583, 2.3495852]}, "geometry": {"type": "Point", "coordinates": [2.3495852, 48.8450583]}},{"datasetid": "liste-des-cafes-a-un-euro", "recordid": "6bcf00ff213632ccc87721a203a4aff886480b07", "fields": {"salle": "-", "nom": "Le Tournebride", "comptoir": 1.0, "arrondissement": 75005, "adresse": "104 rue Mouffetard 75005 Paris", "terrasse": "-", "maj": "2012-06-27", "lat_lon": [48.8410997, 2.3495692]}, "geometry": {"type": "Point", "coordinates": [2.3495692, 48.8410997]}},{"datasetid": "liste-des-cafes-a-un-euro", "recordid": "bbbc98f8e0034f4aa65bab5324589d8b50f98f94", "fields": {"salle": "-", "nom": "Caf\u00e9 dans l'aerogare Air France Invalides", "comptoir": 1.0, "arrondissement": 75007, "adresse": "2 rue Robert Esnault Pelterie 75007 Paris", "terrasse": "-", "maj": "2012-07-03", "lat_lon": [48.8623784, 2.3149161]}, "geometry": {"type": "Point", "coordinates": [2.3149161, 48.8623784]}},{"datasetid": "liste-des-cafes-a-un-euro", "recordid": "3a1ac65cb912f937ee9f50725425600d8674f2b8", "fields": {"salle": "-", "nom": "Le Bosquet", "comptoir": 1.0, "arrondissement": 75007, "adresse": "46 avenue Bosquet 75007 Paris", "terrasse": "-", "maj": "2012-09-10", "lat_lon": [48.8559992, 2.3045876]}, "geometry": {"type": "Point", "coordinates": [2.3045876, 48.8559992]}},{"datasetid": "liste-des-cafes-a-un-euro", "recordid": "8d3d3fd535a23849bb536927f1d7691b909d8ec9", "fields": {"salle": "-", "nom": "Caf\u00e9 beauveau", "comptoir": 1.0, "arrondissement": 75008, "adresse": "9 rue de Miromesnil 75008 Paris", "terrasse": "-", "maj": "2012-06-27", "lat_lon": [48.8717999, 2.3159991]}, "geometry": {"type": "Point", "coordinates": [2.3159991, 48.8717999]}},{"datasetid": "liste-des-cafes-a-un-euro", "recordid": "6060fb6f665ebfa5de6b874d5ae0210fc1d6f4aa", "fields": {"salle": "-", "nom": "Le Relais Haussmann", "comptoir": 1.0, "arrondissement": 75008, "adresse": "146, boulevard Haussmann 75008 Paris", "terrasse": "-", "maj": "2012-07-03", "lat_lon": [48.8753127, 2.3123244]}, "geometry": {"type": "Point", "coordinates": [2.3123244, 48.8753127]}},{"datasetid": "liste-des-cafes-a-un-euro", "recordid": "966a47bc43fa0f068fbc235b8bc967d03d4492f6", "fields": {"salle": "-", "nom": "Caf\u00e9 Zen", "comptoir": 1.0, "arrondissement": 75009, "adresse": "46 rue Victoire 75009 Paris", "terrasse": "-", "maj": "2012-11-05", "lat_lon": [48.8752033, 2.3352841]}, "geometry": {"type": "Point", "coordinates": [2.3352841, 48.8752033]}},{"datasetid": "liste-des-cafes-a-un-euro", "recordid": "8606488f3a06c50fa130a370480b94e4d746062d", "fields": {"salle": "-", "nom": "NoMa", "comptoir": 1.0, "arrondissement": 75003, "adresse": "39 rue Notre Dame de Nazareth 75003 Paris", "terrasse": "-", "maj": "2013-08-14", "lat_lon": [48.8674734, 2.3577982]}, "geometry": {"type": "Point", "coordinates": [2.3577982, 48.8674734]}},{"datasetid": "liste-des-cafes-a-un-euro", "recordid": "556db62bf80ac116e6ab960ff0f348048c6112e6", "fields": {"salle": "-", "nom": "American Kitchen", "comptoir": 1.0, "arrondissement": 75010, "adresse": "49 rue bichat 75010 Paris", "terrasse": "-", "maj": "2013-08-14", "lat_lon": [48.8727489, 2.3664087]}, "geometry": {"type": "Point", "coordinates": [2.3664087, 48.8727489]}},{"datasetid": "liste-des-cafes-a-un-euro", "recordid": "f9963e673b43a1f50969379b63dd9cda878a6315", "fields": {"salle": "1", "nom": "Chez Miamophile", "comptoir": 1.0, "arrondissement": 75019, "adresse": "6 rue M\u00e9lingue 75019 Paris", "terrasse": "1", "maj": "2013-08-14", "lat_lon": [48.8748714, 2.3860558]}, "geometry": {"type": "Point", "coordinates": [2.3860558, 48.8748714]}},{"datasetid": "liste-des-cafes-a-un-euro", "recordid": "027aea580ce8ec39375a9c06cd0fe721c698607c", "fields": {"salle": "1", "nom": "Le Plomb du cantal", "comptoir": 1.0, "arrondissement": 75014, "adresse": "3 rue Ga\u00eet\u00e9 75014 Paris", "terrasse": "-", "maj": "2012-10-22", "lat_lon": [48.8396528, 2.3235536]}, "geometry": {"type": "Point", "coordinates": [2.3235536, 48.8396528]}},{"datasetid": "liste-des-cafes-a-un-euro", "recordid": "116928052c61f959b53e6fec53b80f8a2be24791", "fields": {"salle": "-", "nom": "le chateau d'eau", "comptoir": 1.0, "arrondissement": 75010, "adresse": "67 rue du Ch\u00e2teau d'eau 75010 Paris", "terrasse": "-", "maj": "2012-07-03", "lat_lon": [48.8727264, 2.3546107]}, "geometry": {"type": "Point", "coordinates": [2.3546107, 48.8727264]}},{"datasetid": "liste-des-cafes-a-un-euro", "recordid": "65db8face97c2d127034116e2d7a0ec177a5da7b", "fields": {"salle": "-", "nom": "L'ing\u00e9nu", "comptoir": 1.0, "arrondissement": 75011, "adresse": "184 bd Voltaire 75011 Paris", "terrasse": "-", "maj": "2012-06-27", "lat_lon": [48.8575917, 2.3805149]}, "geometry": {"type": "Point", "coordinates": [2.3805149, 48.8575917]}},{"datasetid": "liste-des-cafes-a-un-euro", "recordid": "106c6421858c1bdcf834e0227cb5ba1482e4e799", "fields": {"salle": "1", "nom": "Le Centenaire", "comptoir": 1.0, "arrondissement": 75011, "adresse": "104 rue amelot 75011 Paris", "terrasse": "-", "maj": "2012-10-22", "lat_lon": [48.8626665, 2.3674724]}, "geometry": {"type": "Point", "coordinates": [2.3674724, 48.8626665]}},{"datasetid": "liste-des-cafes-a-un-euro", "recordid": "c7f8e51f7df5533131a691b0f31600f336951547", "fields": {"salle": "-", "nom": "Panem", "comptoir": 0.9, "arrondissement": 75011, "adresse": "18 rue de Crussol 75011 Paris", "terrasse": "-", "maj": "2012-11-05", "lat_lon": [48.864245, 2.3685194]}, "geometry": {"type": "Point", "coordinates": [2.3685194, 48.864245]}},{"datasetid": "liste-des-cafes-a-un-euro", "recordid": "e2149dab97697a36ad29ccf3f2c3649856197ec1", "fields": {"salle": "1", "nom": "La Libert\u00e9", "comptoir": 1.0, "arrondissement": 75012, "adresse": "196 rue du faubourg saint-antoine 75012 Paris", "terrasse": "-", "maj": "2012-10-22", "lat_lon": [48.8506288, 2.3788268]}, "geometry": {"type": "Point", "coordinates": [2.3788268, 48.8506288]}},{"datasetid": "liste-des-cafes-a-un-euro", "recordid": "fb4e73a8d27ee190760779dcc2a70fc980373f81", "fields": {"salle": "1", "nom": "Le Couvent", "comptoir": 1.0, "arrondissement": 75013, "adresse": "69 rue Broca 75013 Paris", "terrasse": "-", "maj": "2012-10-18", "lat_lon": [48.837243, 2.3470775]}, "geometry": {"type": "Point", "coordinates": [2.3470775, 48.837243]}},{"datasetid": "liste-des-cafes-a-un-euro", "recordid": "496805eb8ac4396f4ebdb9476d7028958f445ce6", "fields": {"salle": "-", "nom": "Tamm Bara", "comptoir": 1.0, "arrondissement": 75013, "adresse": "7 rue Clisson 75013 Paris", "terrasse": "-", "maj": "2012-07-03", "lat_lon": [48.8294364, 2.3653929]}, "geometry": {"type": "Point", "coordinates": [2.3653929, 48.8294364]}},{"datasetid": "liste-des-cafes-a-un-euro", "recordid": "c812569f468303b44610142bd65d085dceab3400", "fields": {"salle": "-", "nom": "maison du vin", "comptoir": 1.0, "arrondissement": 75014, "adresse": "52 rue des plantes 75014 Paris", "terrasse": "-", "maj": "2012-06-27", "lat_lon": [48.8275941, 2.32099]}, "geometry": {"type": "Point", "coordinates": [2.32099, 48.8275941]}},{"datasetid": "liste-des-cafes-a-un-euro", "recordid": "af99b5f0787ecb80d4a9f9a7d7a91552a864f44c", "fields": {"salle": "-", "nom": "Caf\u00e9 Dupont", "comptoir": 0.99, "arrondissement": 75015, "adresse": "198 rue de la Convention 75015 Paris", "terrasse": "-", "maj": "2012-11-05", "lat_lon": [48.8372002, 2.2960597]}, "geometry": {"type": "Point", "coordinates": [2.2960597, 48.8372002]}},{"datasetid": "liste-des-cafes-a-un-euro", "recordid": "342f66505a8138a46a35b77853f195849a4ce564", "fields": {"salle": "-", "nom": "les montparnos", "comptoir": 1.0, "arrondissement": 75015, "adresse": "65 boulevard Pasteur 75015 Paris", "terrasse": "-", "maj": "2012-06-27", "lat_lon": [48.840994, 2.3147903]}, "geometry": {"type": "Point", "coordinates": [2.3147903, 48.840994]}},{"datasetid": "liste-des-cafes-a-un-euro", "recordid": "38df5df762da2e4b9e9c39795272cf182d74a815", "fields": {"salle": "-", "nom": "Le Village", "comptoir": 1.0, "arrondissement": 75017, "adresse": "182 rue de Courcelles 75017 Paris", "terrasse": "-", "maj": "2012-07-03", "lat_lon": [48.884369, 2.2980441]}, "geometry": {"type": "Point", "coordinates": [2.2980441, 48.884369]}},{"datasetid": "liste-des-cafes-a-un-euro", "recordid": "ca0d9c4c8616f9cd0ca26cf62e8e358624cf52a1", "fields": {"salle": "1", "nom": "Au bon coin", "comptoir": 1.0, "arrondissement": 75018, "adresse": "49 rue des Cloys 75018 Paris", "terrasse": "1", "maj": "2012-10-18", "lat_lon": [48.8928535, 2.3390434]}, "geometry": {"type": "Point", "coordinates": [2.3390434, 48.8928535]}},{"datasetid": "liste-des-cafes-a-un-euro", "recordid": "956cb105308f9601f3588120522b4f70113cfe11", "fields": {"salle": "-", "nom": "Le Chaumontois", "comptoir": 1.0, "arrondissement": 75018, "adresse": "12 rue Armand Carrel 75018 Paris", "terrasse": "-", "maj": "2012-07-03", "lat_lon": [48.8828789, 2.3737144]}, "geometry": {"type": "Point", "coordinates": [2.3737144, 48.8828789]}},{"datasetid": "liste-des-cafes-a-un-euro", "recordid": "069b266b903ccfa23192a6c79b068f901a0f936d", "fields": {"salle": "1", "nom": "Le M\u00fcller", "comptoir": 1.0, "arrondissement": 75018, "adresse": "11 rue Feutrier 75018 Paris", "terrasse": "-", "maj": "2012-10-22", "lat_lon": [48.886539, 2.3465403]}, "geometry": {"type": "Point", "coordinates": [2.3465403, 48.886539]}},{"datasetid": "liste-des-cafes-a-un-euro", "recordid": "35c6e6c15fc557776af7b8533e22ac63357c532d", "fields": {"salle": "-", "nom": "Etienne", "comptoir": 1.0, "arrondissement": 75001, "adresse": "14 rue Turbigo, Paris 75002 Paris", "terrasse": "-", "maj": "2012-06-27", "lat_lon": [48.8637823, 2.3489649]}, "geometry": {"type": "Point", "coordinates": [2.3489649, 48.8637823]}},{"datasetid": "liste-des-cafes-a-un-euro", "recordid": "a436627e39a9ebe0683d2946e6edfef0e9276be3", "fields": {"salle": "1", "nom": "La chaumi\u00e8re gourmande", "arrondissement": 75016, "adresse": "Route de la Muette \u00e0 Neuilly\nClub hippique du Jardin d\u0092Acclimatation 75016 Paris", "terrasse": "-", "maj": "2012-07-03", "lat_lon": [48.8655009, 2.265531]}, "geometry": {"type": "Point", "coordinates": [2.265531, 48.8655009]}},{"datasetid": "liste-des-cafes-a-un-euro", "recordid": "994991b51d13df890ba8ce6369f44571b1d37f33", "fields": {"salle": "-", "nom": "Le Ragueneau", "comptoir": 1.0, "arrondissement": 75001, "adresse": "202 rue Saint-Honor\u00e9 75001 Paris", "terrasse": "-", "maj": "2012-06-27", "lat_lon": [48.8627103, 2.3377012]}, "geometry": {"type": "Point", "coordinates": [2.3377012, 48.8627103]}},{"datasetid": "liste-des-cafes-a-un-euro", "recordid": "45d0e764a11ddcdb3485f8712cf7ae157c99cbeb", "fields": {"salle": "-", "nom": "Peperoni", "comptoir": 1.0, "arrondissement": 75001, "adresse": "83 avenue de Wagram 75001 Paris", "terrasse": "-", "maj": "2012-06-27", "lat_lon": [48.8802413, 2.2995104]}, "geometry": {"type": "Point", "coordinates": [2.2995104, 48.8802413]}},{"datasetid": "liste-des-cafes-a-un-euro", "recordid": "7dc908cce17ce433e1fb24a00693e41602943e61", "fields": {"salle": "1", "nom": "Les P\u00e8res Populaires", "comptoir": 1.0, "arrondissement": 75020, "adresse": "46 rue de Buzenval 75020 Paris", "terrasse": "-", "maj": "2012-10-18", "lat_lon": [48.8513186, 2.4016999]}, "geometry": {"type": "Point", "coordinates": [2.4016999, 48.8513186]}},{"datasetid": "liste-des-cafes-a-un-euro", "recordid": "7db33c747629cdf3a5f2bff5564a906d4715947a", "fields": {"salle": "-", "nom": "Br\u00fblerie San Jos\u00e9", "comptoir": 1.0, "arrondissement": 75002, "adresse": "30 rue des Petits-Champs 75002 Paris", "terrasse": "-", "maj": "2012-06-27", "lat_lon": [48.8669982, 2.336005]}, "geometry": {"type": "Point", "coordinates": [2.336005, 48.8669982]}},{"datasetid": "liste-des-cafes-a-un-euro", "recordid": "0232aa6161c0a3e1bd19e9d6ce4f17a61a9f2cb2", "fields": {"salle": "-", "nom": "L'Entracte", "comptoir": 1.0, "arrondissement": 75002, "adresse": "place de l'opera 75002 Paris", "terrasse": "-", "maj": "2012-09-10", "lat_lon": [48.8704618, 2.33238383219415]}, "geometry": {"type": "Point", "coordinates": [2.33238383219415, 48.8704618]}},{"datasetid": "liste-des-cafes-a-un-euro", "recordid": "1a0bfa064b2e82df6f1dfa673c2ab78c50e69e3f", "fields": {"salle": "-", "nom": "Le S\u00e9vign\u00e9", "comptoir": 1.0, "arrondissement": 75003, "adresse": "15 rue du Parc Royal 75003 Paris", "terrasse": "-", "maj": "2012-09-10", "lat_lon": [48.8587285, 2.3626683]}, "geometry": {"type": "Point", "coordinates": [2.3626683, 48.8587285]}},{"datasetid": "liste-des-cafes-a-un-euro", "recordid": "c81a6406c28bf1ff1e49a3eb0c973b6785ca96a4", "fields": {"salle": "-", "nom": "l'El\u00e9phant du nil", "comptoir": 1.0, "arrondissement": 75004, "adresse": "125 Rue Saint-Antoine 75004 Paris", "terrasse": "-", "maj": "2012-06-27", "lat_lon": [48.8551687, 2.3602451]}, "geometry": {"type": "Point", "coordinates": [2.3602451, 48.8551687]}},{"datasetid": "liste-des-cafes-a-un-euro", "recordid": "40ca639dc3faf06a1d9392f850a17aece363a5ca", "fields": {"salle": "-", "nom": "Le Felteu", "comptoir": 1.0, "arrondissement": 75004, "adresse": "1 rue Pecquay 75004 Paris", "terrasse": "-", "maj": "2012-06-27", "lat_lon": [48.8596446, 2.3556142]}, "geometry": {"type": "Point", "coordinates": [2.3556142, 48.8596446]}},{"datasetid": "liste-des-cafes-a-un-euro", "recordid": "d1cc02e781391c0d6c3d0728e2fbc7430b4cbafc", "fields": {"salle": "-", "nom": "La Br\u00fblerie des Ternes", "comptoir": 1.0, "arrondissement": 75005, "adresse": "111 rue Mouffetard 75005 Paris", "terrasse": "-", "maj": "2012-11-05", "lat_lon": [48.8406236, 2.3497527]}, "geometry": {"type": "Point", "coordinates": [2.3497527, 48.8406236]}},{"datasetid": "liste-des-cafes-a-un-euro", "recordid": "60610cae6f388c014378c57300cdd92caedf4cf7", "fields": {"salle": "-", "nom": "Caf\u00e9 Lea", "comptoir": 1.0, "arrondissement": 75005, "adresse": "5 rue Claude Bernard 75005 Paris", "terrasse": "-", "maj": "2012-06-27", "lat_lon": [48.8386437, 2.3499331]}, "geometry": {"type": "Point", "coordinates": [2.3499331, 48.8386437]}},{"datasetid": "liste-des-cafes-a-un-euro", "recordid": "6617f0b664afbf351762f9d5e122db6ec1dcf3ce", "fields": {"salle": "-", "nom": "Cardinal Saint-Germain", "comptoir": 1.0, "arrondissement": 75005, "adresse": "11 boulevard Saint-Germain 75005 Paris", "terrasse": "-", "maj": "2012-06-27", "lat_lon": [48.8493014, 2.3545037]}, "geometry": {"type": "Point", "coordinates": [2.3545037, 48.8493014]}},{"datasetid": "liste-des-cafes-a-un-euro", "recordid": "d95ad2e55b837aecc5b24fc69d097006e1d2752d", "fields": {"salle": "-", "nom": "Waikiki", "comptoir": 1.0, "arrondissement": 75005, "adresse": "10 rue d\"Ulm 75005 Paris", "terrasse": "-", "maj": "2012-07-03", "lat_lon": [48.8449129, 2.3454186]}, "geometry": {"type": "Point", "coordinates": [2.3454186, 48.8449129]}},{"datasetid": "liste-des-cafes-a-un-euro", "recordid": "43f9fa91f96cfb5022f66bf5b9718bfe0abff3f9", "fields": {"salle": "-", "nom": "Les Vendangeurs", "comptoir": 1.0, "arrondissement": 75006, "adresse": "6/8 rue Stanislas 75006 Paris", "terrasse": "-", "maj": "2012-07-03", "lat_lon": [48.8435717, 2.3279735]}, "geometry": {"type": "Point", "coordinates": [2.3279735, 48.8435717]}},{"datasetid": "liste-des-cafes-a-un-euro", "recordid": "5b092c904cec0c24282cb17af0073746a958efb1", "fields": {"salle": "-", "nom": "Le Fronton", "comptoir": 1.0, "arrondissement": 75008, "adresse": "63 rue de Ponthieu 75008 Paris", "terrasse": "-", "maj": "2012-06-27", "lat_lon": [48.8722649, 2.304458]}, "geometry": {"type": "Point", "coordinates": [2.304458, 48.8722649]}},{"datasetid": "liste-des-cafes-a-un-euro", "recordid": "98dc49a82333068be226cc9b18ede2f91c210319", "fields": {"salle": "-", "nom": "Le Brigadier", "comptoir": 1.0, "arrondissement": 75009, "adresse": "12 rue Blanche 75009 Paris", "terrasse": "-", "maj": "2012-09-10", "lat_lon": [48.8775907, 2.3321008]}, "geometry": {"type": "Point", "coordinates": [2.3321008, 48.8775907]}},{"datasetid": "liste-des-cafes-a-un-euro", "recordid": "c1089a906639d62914e51aae6f0fcf17156b2100", "fields": {"salle": "-", "nom": "Caf\u00e9 rallye tournelles", "comptoir": 1.0, "arrondissement": 75005, "adresse": "11 Quai de la Tournelle 75005 Paris", "terrasse": "-", "maj": "2013-08-14", "lat_lon": [48.8507246, 2.3526047]}, "geometry": {"type": "Point", "coordinates": [2.3526047, 48.8507246]}},{"datasetid": "liste-des-cafes-a-un-euro", "recordid": "fbc94fc151279918f0d41b9c1f59e4e70f43288b", "fields": {"salle": "-", "nom": "Le Bloc", "comptoir": 1.0, "arrondissement": 75017, "adresse": "21 rue  Brochant 75017 Paris", "terrasse": "-", "maj": "2013-08-14", "lat_lon": [48.8894753, 2.3186696]}, "geometry": {"type": "Point", "coordinates": [2.3186696, 48.8894753]}},{"datasetid": "liste-des-cafes-a-un-euro", "recordid": "4b30aa0da5a7633f1a7f00ee8054845e0f070d8e", "fields": {"salle": "-", "nom": "Le Dunois", "comptoir": 1.0, "arrondissement": 75013, "adresse": "77 rue Dunois 75013 Paris", "terrasse": "-", "maj": "2013-08-14", "lat_lon": [48.833305, 2.3657668]}, "geometry": {"type": "Point", "coordinates": [2.3657668, 48.833305]}},{"datasetid": "liste-des-cafes-a-un-euro", "recordid": "435577a67d07db6778ec5465894037fb47308333", "fields": {"salle": "-", "nom": "Chez Fafa", "comptoir": 1.0, "arrondissement": 75010, "adresse": "44 rue Vinaigriers 75010 Paris", "terrasse": "-", "maj": "2012-07-03", "lat_lon": [48.8731707, 2.3613823]}, "geometry": {"type": "Point", "coordinates": [2.3613823, 48.8731707]}},{"datasetid": "liste-des-cafes-a-un-euro", "recordid": "355c8caa60703945b902c2fd820c962e342f7cb2", "fields": {"salle": "-", "nom": "L'horizon", "comptoir": 1.0, "arrondissement": 75011, "adresse": "93, rue de la Roquette 75011 Paris", "terrasse": "-", "maj": "2012-07-03", "lat_lon": [48.8576406, 2.3799975]}, "geometry": {"type": "Point", "coordinates": [2.3799975, 48.8576406]}},{"datasetid": "liste-des-cafes-a-un-euro", "recordid": "a11b0147093b1a0220959f28b8d9f2e57cffc8fa", "fields": {"salle": "-", "nom": "Le Pure caf\u00e9", "comptoir": 1.0, "arrondissement": 75011, "adresse": "14 rue Jean Mac\u00e9 75011 Paris", "terrasse": "-", "maj": "2012-07-03", "lat_lon": [48.8532405, 2.3834233]}, "geometry": {"type": "Point", "coordinates": [2.3834233, 48.8532405]}},{"datasetid": "liste-des-cafes-a-un-euro", "recordid": "c9a0097374dd44cd6e2e27b87c5058b618582e3d", "fields": {"salle": "-", "nom": "Aux cadrans", "comptoir": 1.0, "arrondissement": 75012, "adresse": "21 ter boulevard Diderot 75012 Paris", "terrasse": "-", "maj": "2012-06-27", "lat_lon": [48.8465821, 2.3800398]}, "geometry": {"type": "Point", "coordinates": [2.3800398, 48.8465821]}},{"datasetid": "liste-des-cafes-a-un-euro", "recordid": "1f019e2e95a5cca344f95f1ec343d1e3be5bc635", "fields": {"salle": "-", "nom": "Caf\u00e9 Pierre", "comptoir": 1.0, "arrondissement": 75012, "adresse": "202 rue du faubourg st antoine 75012 Paris", "terrasse": "-", "maj": "2012-07-03", "lat_lon": [48.8506288, 2.3788268]}, "geometry": {"type": "Point", "coordinates": [2.3788268, 48.8506288]}},{"datasetid": "liste-des-cafes-a-un-euro", "recordid": "ebd2d2593301c753dc9ce23576eee24db479a42f", "fields": {"salle": "-", "nom": "Le Kleemend's", "comptoir": 1.0, "arrondissement": 75013, "adresse": "34 avenue Pierre Mend\u00e8s-France 75013 Paris", "terrasse": "-", "maj": "2012-07-03", "lat_lon": [48.838514, 2.3704605]}, "geometry": {"type": "Point", "coordinates": [2.3704605, 48.838514]}},{"datasetid": "liste-des-cafes-a-un-euro", "recordid": "0a85e59b5af2e67679acc6e1b34a52f02155b7c1", "fields": {"salle": "-", "nom": "Le petit club", "comptoir": 1.0, "arrondissement": 75014, "adresse": "55 rue de la tombe Issoire 75014 Paris", "terrasse": "-", "maj": "2012-07-03", "lat_lon": [48.8297226, 2.3337986]}, "geometry": {"type": "Point", "coordinates": [2.3337986, 48.8297226]}},{"datasetid": "liste-des-cafes-a-un-euro", "recordid": "bd981396e36d1c2fdeb762b6856bbc7af33ee9f3", "fields": {"salle": "-", "nom": "le Zango", "comptoir": 1.0, "arrondissement": 75014, "adresse": "58 rue Daguerre 75014 Paris", "terrasse": "-", "maj": "2012-06-27", "lat_lon": [48.8355233, 2.3253347]}, "geometry": {"type": "Point", "coordinates": [2.3253347, 48.8355233]}},{"datasetid": "liste-des-cafes-a-un-euro", "recordid": "8dea9d9a8c99f412bb1ec36d0673a3af7f575544", "fields": {"salle": "-", "nom": "bistrot les timbr\u00e9s", "comptoir": 1.0, "arrondissement": 75015, "adresse": "14 rue d'alleray 75015 Paris", "terrasse": "-", "maj": "2012-06-27", "lat_lon": [48.8381374, 2.3011831]}, "geometry": {"type": "Point", "coordinates": [2.3011831, 48.8381374]}},{"datasetid": "liste-des-cafes-a-un-euro", "recordid": "541ea696d475071f831b91e9f874bf0756f26d95", "fields": {"salle": "-", "nom": "Caf\u00e9 Victor", "comptoir": 1.0, "arrondissement": 75015, "adresse": "10 boulevard Victor 75015 Paris", "terrasse": "-", "maj": "2012-07-03", "lat_lon": [48.8358292, 2.2784139]}, "geometry": {"type": "Point", "coordinates": [2.2784139, 48.8358292]}},{"datasetid": "liste-des-cafes-a-un-euro", "recordid": "902c70a6297ae7f3495a4cc052b8f19346a744e4", "fields": {"salle": "-", "nom": "La Bauloise", "comptoir": 1.0, "arrondissement": 75015, "adresse": "36 rue du hameau 75015 Paris", "terrasse": "-", "maj": "2012-06-27", "lat_lon": [48.834081, 2.2873067178384]}, "geometry": {"type": "Point", "coordinates": [2.2873067178384, 48.834081]}},{"datasetid": "liste-des-cafes-a-un-euro", "recordid": "a5d678be2b8d7005aa8afcfbcd9085341e58cbd2", "fields": {"salle": "-", "nom": "Le General Beuret", "comptoir": 1.0, "arrondissement": 75015, "adresse": "9 Place du General Beuret 75015 Paris", "terrasse": "-", "maj": "2012-06-27", "lat_lon": [48.8416806, 2.3030556]}, "geometry": {"type": "Point", "coordinates": [2.3030556, 48.8416806]}},{"datasetid": "liste-des-cafes-a-un-euro", "recordid": "5d0d0d3437c2f9c86c993ed7c99c61cc3baa8150", "fields": {"salle": "-", "nom": "Le Germinal", "comptoir": 1.0, "arrondissement": 75015, "adresse": "95 avenue Emile Zola 75015 Paris", "terrasse": "-", "maj": "2012-06-27", "lat_lon": [48.8468067, 2.2893228]}, "geometry": {"type": "Point", "coordinates": [2.2893228, 48.8468067]}},{"datasetid": "liste-des-cafes-a-un-euro", "recordid": "e00a13f9b32bfe853968df3c801e0e9bf6f5afda", "fields": {"salle": "-", "nom": "Caves populaires", "comptoir": 1.0, "arrondissement": 75017, "adresse": "22 rue des Dames 75017 Paris", "terrasse": "-", "maj": "2012-07-03", "lat_lon": [48.8849458, 2.3250141]}, "geometry": {"type": "Point", "coordinates": [2.3250141, 48.8849458]}},{"datasetid": "liste-des-cafes-a-un-euro", "recordid": "82ec55377584f13eb32d361904061ac839858646", "fields": {"salle": "-", "nom": "Pari's Caf\u00e9", "comptoir": 1.0, "arrondissement": 75017, "adresse": "174 avenue de Clichy 75017 Paris", "terrasse": "-", "maj": "2012-06-27", "lat_lon": [48.8927948, 2.3162968]}, "geometry": {"type": "Point", "coordinates": [2.3162968, 48.8927948]}},{"datasetid": "liste-des-cafes-a-un-euro", "recordid": "9dd1c847ae5ae6b7dccea9585a0c7581de888706", "fields": {"salle": "1", "nom": "Le Supercoin", "comptoir": 1.0, "arrondissement": 75018, "adresse": "3, rue Baudelique 75018 Paris", "terrasse": "-", "maj": "2012-10-22", "lat_lon": [48.892255, 2.346987]}, "geometry": {"type": "Point", "coordinates": [2.346987, 48.892255]}},{"datasetid": "liste-des-cafes-a-un-euro", "recordid": "84797457043837a25bb07b8d56ad791c56cc00de", "fields": {"salle": "-", "nom": "Le bar Fleuri", "comptoir": 1.0, "arrondissement": 75019, "adresse": "1 rue du Plateau 75019 Paris", "terrasse": "-", "maj": "2012-07-03", "lat_lon": [48.8779154, 2.3853638]}, "geometry": {"type": "Point", "coordinates": [2.3853638, 48.8779154]}},{"datasetid": "liste-des-cafes-a-un-euro", "recordid": "1ea3b3a8b002989113df4bed00bfa93e7695a9fb", "fields": {"salle": "-", "nom": "Caf\u00e9 Martin", "comptoir": 1.0, "arrondissement": 75001, "adresse": "2 place Martin Nadaud 75020 Paris", "terrasse": "-", "maj": "2012-06-27", "lat_lon": [48.8651248, 2.3950499]}, "geometry": {"type": "Point", "coordinates": [2.3950499, 48.8651248]}},{"datasetid": "liste-des-cafes-a-un-euro", "recordid": "2b144ab8861384e9b0dc57bba96322b5a15ade16", "fields": {"salle": "-", "nom": "D\u00e9d\u00e9 la frite", "comptoir": 1.0, "arrondissement": 75002, "adresse": "52 rue Notre-Dame des Victoires 75002 Paris", "terrasse": "-", "maj": "2012-06-27", "lat_lon": [48.8698, 2.3425335]}, "geometry": {"type": "Point", "coordinates": [2.3425335, 48.8698]}},{"datasetid": "liste-des-cafes-a-un-euro", "recordid": "35aeeb79efc1c4afed8a2ae81150be3cf4306a6a", "fields": {"salle": "1", "nom": "Le Petit Choiseul", "comptoir": 1.0, "arrondissement": 75002, "adresse": "23 rue saint augustin 75002 Paris", "terrasse": "-", "maj": "2012-10-22", "lat_lon": [48.8688329, 2.3359521]}, "geometry": {"type": "Point", "coordinates": [2.3359521, 48.8688329]}},{"datasetid": "liste-des-cafes-a-un-euro", "recordid": "b0947766847538d4a14154c130c25532b6d8e5b4", "fields": {"salle": "-", "nom": "Le Square", "comptoir": 1.0, "arrondissement": 75007, "adresse": "31 rue Saint-Dominique 75007 Paris", "terrasse": "-", "maj": "2012-07-03", "lat_lon": [48.859034, 2.3203345]}, "geometry": {"type": "Point", "coordinates": [2.3203345, 48.859034]}},{"datasetid": "liste-des-cafes-a-un-euro", "recordid": "287d68e88c89249a64ff55678270a8174087aef1", "fields": {"salle": "-", "nom": "Les Arcades", "comptoir": 1.0, "arrondissement": 75008, "adresse": "61 rue de Ponthieu 75008 Paris", "terrasse": "-", "maj": "2012-07-03", "lat_lon": [48.8722111, 2.3046288]}, "geometry": {"type": "Point", "coordinates": [2.3046288, 48.8722111]}},{"datasetid": "liste-des-cafes-a-un-euro", "recordid": "a20d75c60af0e44525bca400120801b4997b3f18", "fields": {"salle": "1", "nom": "L'Angle", "comptoir": 1.0, "arrondissement": 75008, "adresse": "28 rue de Ponthieu 75008 Paris", "terrasse": "-", "maj": "2012-10-22", "lat_lon": [48.8709919, 2.3087955]}, "geometry": {"type": "Point", "coordinates": [2.3087955, 48.8709919]}},{"datasetid": "liste-des-cafes-a-un-euro", "recordid": "4ddcd085f2eaca80bf02d9aa477a986310a7cd10", "fields": {"salle": "-", "nom": "L'anjou", "comptoir": 1.0, "arrondissement": 75009, "adresse": "1 rue de Montholon 75009 Paris", "terrasse": "-", "maj": "2012-07-03", "lat_lon": [48.876542, 2.348657]}, "geometry": {"type": "Point", "coordinates": [2.348657, 48.876542]}},{"datasetid": "liste-des-cafes-a-un-euro", "recordid": "8e8d88778d11fd85a134e52251810a1faa83d176", "fields": {"salle": "-", "nom": "O q de poule", "comptoir": 1.0, "arrondissement": 75018, "adresse": "53 rue du ruisseau 75018 Paris", "terrasse": "1", "maj": "2013-08-14", "lat_lon": [48.8948308, 2.3407464]}, "geometry": {"type": "Point", "coordinates": [2.3407464, 48.8948308]}},{"datasetid": "liste-des-cafes-a-un-euro", "recordid": "02dc434a904c81ce034ea14b8863a7d0e02598e0", "fields": {"salle": "-", "nom": "La cantoche de Paname", "comptoir": 0.9, "arrondissement": 75011, "adresse": "40 Boulevard Beaumarchais 75011 Paris", "terrasse": "-", "maj": "2013-08-14", "lat_lon": [48.8605871, 2.36735]}, "geometry": {"type": "Point", "coordinates": [2.36735, 48.8605871]}},{"datasetid": "liste-des-cafes-a-un-euro", "recordid": "b2db77883938eaf0a078def10718cbf32d34f3c5", "fields": {"salle": "-", "nom": "Brasserie le Morvan", "comptoir": 1.0, "arrondissement": 75010, "adresse": "61 rue du ch\u00e2teau d'eau 75010 Paris", "terrasse": "-", "maj": "2013-08-14", "lat_lon": [48.8725058, 2.35516]}, "geometry": {"type": "Point", "coordinates": [2.35516, 48.8725058]}},{"datasetid": "liste-des-cafes-a-un-euro", "recordid": "00c0f7d8b00ea23aea7689040e5d93dedaa7015d", "fields": {"salle": "-", "nom": "L'In\u00e9vitable", "comptoir": 1.0, "arrondissement": 75005, "adresse": "22 rue Linn\u00e9 75005 Paris", "terrasse": "-", "maj": "2013-08-14", "lat_lon": [48.8454475, 2.3547843]}, "geometry": {"type": "Point", "coordinates": [2.3547843, 48.8454475]}},{"datasetid": "liste-des-cafes-a-un-euro", "recordid": "1ca605cccf44f6e12971b6846c104f7f952629f0", "fields": {"salle": "1", "nom": "Epicerie Musicale", "comptoir": 1.0, "arrondissement": 75010, "adresse": "55bis quai de Valmy 75010 Paris", "terrasse": "-", "maj": "2012-10-22", "lat_lon": [48.8805969, 2.3675729]}, "geometry": {"type": "Point", "coordinates": [2.3675729, 48.8805969]}},{"datasetid": "liste-des-cafes-a-un-euro", "recordid": "b2cd43d5a99ae25091ebe71f5cea8bcc2d2cd926", "fields": {"salle": "-", "nom": "Le Plein soleil", "comptoir": 1.0, "arrondissement": 75011, "adresse": "90 avenue Parmentier 75011 Paris", "terrasse": "-", "maj": "2012-07-03", "lat_lon": [48.8591443, 2.3794671]}, "geometry": {"type": "Point", "coordinates": [2.3794671, 48.8591443]}},{"datasetid": "liste-des-cafes-a-un-euro", "recordid": "04ba1fc87770863c74c34bf4c52c342d551c4c42", "fields": {"salle": "-", "nom": "Pause Caf\u00e9", "comptoir": 1.0, "arrondissement": 75011, "adresse": "41 rue de Charonne 75011 Paris", "terrasse": "-", "maj": "2012-07-03", "lat_lon": [48.8539222, 2.3820074]}, "geometry": {"type": "Point", "coordinates": [2.3820074, 48.8539222]}},{"datasetid": "liste-des-cafes-a-un-euro", "recordid": "87a6ce3e6652688b101fba376a9815a0fb35f354", "fields": {"salle": "-", "nom": "Assaporare Dix sur Dix", "comptoir": 1.0, "arrondissement": 75012, "adresse": "75, avenue Ledru-Rollin 75012 Paris", "terrasse": "-", "maj": "2012-06-27", "lat_lon": [48.850096, 2.3746356]}, "geometry": {"type": "Point", "coordinates": [2.3746356, 48.850096]}},{"datasetid": "liste-des-cafes-a-un-euro", "recordid": "45c9ad51b794f606e493f024e00a34d18e4eea25", "fields": {"salle": "-", "nom": "Au pays de Vannes", "comptoir": 1.0, "arrondissement": 75012, "adresse": "34 bis rue de Wattignies 75012 Paris", "terrasse": "-", "maj": "2012-06-27", "lat_lon": [48.8351499, 2.3988896]}, "geometry": {"type": "Point", "coordinates": [2.3988896, 48.8351499]}},{"datasetid": "liste-des-cafes-a-un-euro", "recordid": "a829b9273c0e86d8f80238e230f38f4c9749dbb5", "fields": {"salle": "-", "nom": "Le Chat bossu", "comptoir": 1.0, "arrondissement": 75012, "adresse": "126, rue du Faubourg Saint Antoine 75012 Paris", "terrasse": "-", "maj": "2012-09-10", "lat_lon": [48.8506488, 2.3783975]}, "geometry": {"type": "Point", "coordinates": [2.3783975, 48.8506488]}},{"datasetid": "liste-des-cafes-a-un-euro", "recordid": "39d4fd1e0b327c859538d3de552ee56df37c9409", "fields": {"salle": "-", "nom": "L'\u00e2ge d'or", "comptoir": 1.0, "arrondissement": 75013, "adresse": "26 rue du Docteur Magnan 75013 Paris", "terrasse": "-", "maj": "2012-07-03", "lat_lon": [48.8263926, 2.3599416]}, "geometry": {"type": "Point", "coordinates": [2.3599416, 48.8263926]}},{"datasetid": "liste-des-cafes-a-un-euro", "recordid": "9fffc1574e3712454f176b331296b1609f413e5d", "fields": {"salle": "-", "nom": "Denfert caf\u00e9", "comptoir": 1.0, "arrondissement": 75014, "adresse": "58 boulvevard Saint Jacques 75014 Paris", "terrasse": "-", "maj": "2012-09-10", "lat_lon": [48.8341513, 2.3337964]}, "geometry": {"type": "Point", "coordinates": [2.3337964, 48.8341513]}},{"datasetid": "liste-des-cafes-a-un-euro", "recordid": "b0ce99960ab3a381c627358a2ae8399740f12f6d", "fields": {"salle": "-", "nom": "Trois pi\u00e8ces cuisine", "comptoir": 1.0, "arrondissement": 75017, "adresse": "101 rue des dames 75017 Paris", "terrasse": "-", "maj": "2012-07-03", "lat_lon": [48.88294, 2.3180637]}, "geometry": {"type": "Point", "coordinates": [2.3180637, 48.88294]}},{"datasetid": "liste-des-cafes-a-un-euro", "recordid": "cdc51ec8ea7c02a37c422da49ed0bf1bf9f9c68b", "fields": {"salle": "1", "nom": "Botak cafe", "comptoir": 1.0, "arrondissement": 75018, "adresse": "1 rue Paul albert 75018 Paris", "terrasse": "1", "maj": "2012-07-03", "lat_lon": [48.8864157, 2.3450892]}, "geometry": {"type": "Point", "coordinates": [2.3450892, 48.8864157]}},{"datasetid": "liste-des-cafes-a-un-euro", "recordid": "02a8560107541f0bac824eed0350083b2a4626ee", "fields": {"salle": "1", "nom": "Le petit Bretonneau", "comptoir": 1.0, "arrondissement": 75018, "adresse": "Le petit Bretonneau - \u00e0 l'int\u00e9rieur de l'H\u00f4pital 75018 Paris", "terrasse": "-", "maj": "2012-10-22"}},{"datasetid": "liste-des-cafes-a-un-euro", "recordid": "d51ab5b6e750dabee23bccacb40a2b3e7d0eccfd", "fields": {"salle": "-", "nom": "Le refuge", "comptoir": 1.0, "arrondissement": 75018, "adresse": "72 rue lamarck 75018 Paris", "terrasse": "-", "maj": "2012-06-27", "lat_lon": [48.8906973, 2.3333276]}, "geometry": {"type": "Point", "coordinates": [2.3333276, 48.8906973]}},{"datasetid": "liste-des-cafes-a-un-euro", "recordid": "61e9275d854c052ad0af20d0c3a61163e5e8c383", "fields": {"salle": "-", "nom": "Le Saint Jean", "comptoir": 1.0, "arrondissement": 75018, "adresse": "23 rue des abbesses 75018 Paris", "terrasse": "-", "maj": "2012-06-27", "lat_lon": [48.8846496, 2.3377492]}, "geometry": {"type": "Point", "coordinates": [2.3377492, 48.8846496]}},{"datasetid": "liste-des-cafes-a-un-euro", "recordid": "98b0852ae2810b887169be8e39666c299d20d960", "fields": {"salle": "-", "nom": "Le Bellerive", "comptoir": 1.0, "arrondissement": 75019, "adresse": "71 quai de Seine 75019 Paris", "terrasse": "-", "maj": "2012-06-27", "lat_lon": [48.8866706, 2.3745518]}, "geometry": {"type": "Point", "coordinates": [2.3745518, 48.8866706]}},{"datasetid": "liste-des-cafes-a-un-euro", "recordid": "4e48dce612ff936bee97c1c1126120cc3a0dbe84", "fields": {"salle": "-", "nom": "Le Reynou", "comptoir": 1.0, "arrondissement": 75001, "adresse": "2 bis quai de la m\u00e9gisserie 75001 Paris", "terrasse": "-", "maj": "2012-06-27", "lat_lon": [48.8575258, 2.3464765]}, "geometry": {"type": "Point", "coordinates": [2.3464765, 48.8575258]}},{"datasetid": "liste-des-cafes-a-un-euro", "recordid": "3dd9ebe04267f45a0ed26040dbdf7e35b80d5fe9", "fields": {"salle": "-", "nom": "Chez Luna", "comptoir": 1.0, "arrondissement": 75020, "adresse": "108 rue de M\u00e9nilmontant 75020 Paris", "terrasse": "-", "maj": "2012-09-10", "lat_lon": [48.8701978, 2.3970254]}, "geometry": {"type": "Point", "coordinates": [2.3970254, 48.8701978]}},{"datasetid": "liste-des-cafes-a-un-euro", "recordid": "76fac8fd8a2256c37ee079af65c08cbe14871180", "fields": {"salle": "1", "nom": "Chez Rutabaga", "comptoir": 1.0, "arrondissement": 75002, "adresse": "16 rue des Petits Champs 75002 Paris", "terrasse": "-", "maj": "2012-10-22", "lat_lon": [48.8667281, 2.3371629]}, "geometry": {"type": "Point", "coordinates": [2.3371629, 48.8667281]}},{"datasetid": "liste-des-cafes-a-un-euro", "recordid": "e1f32e0e57eb7b37054f1aec529966240ed7aef9", "fields": {"salle": "-", "nom": "Le Biz", "comptoir": 1.0, "arrondissement": 75002, "adresse": "18 rue Favart 75002 Paris", "terrasse": "-", "maj": "2012-06-27", "lat_lon": [48.8714039, 2.3383072]}, "geometry": {"type": "Point", "coordinates": [2.3383072, 48.8714039]}},{"datasetid": "liste-des-cafes-a-un-euro", "recordid": "749f86ef142090d8afb016ea07715b571e489406", "fields": {"salle": "-", "nom": "Le Cap Bourbon", "comptoir": 1.0, "arrondissement": 75002, "adresse": "1 rue Louis le Grand 75002 Paris", "terrasse": "-", "maj": "2012-06-27", "lat_lon": [48.8681095, 2.3318004]}, "geometry": {"type": "Point", "coordinates": [2.3318004, 48.8681095]}},{"datasetid": "liste-des-cafes-a-un-euro", "recordid": "2b0c89f14c53079aeb16a7106f593edca412ba26", "fields": {"salle": "-", "nom": "Le Caf\u00e9 d'avant", "comptoir": 1.0, "arrondissement": 75005, "adresse": "35 rue Claude Bernard 75005 Paris", "terrasse": "-", "maj": "2012-09-10", "lat_lon": [48.8396911, 2.3472725]}, "geometry": {"type": "Point", "coordinates": [2.3472725, 48.8396911]}},{"datasetid": "liste-des-cafes-a-un-euro", "recordid": "3b4b8fe13977845d891aa5c3cf71844437c497a2", "fields": {"salle": "-", "nom": "Le Lucernaire", "comptoir": 1.0, "arrondissement": 75006, "adresse": "53 rue Notre-Dame des Champs 75006 Paris", "terrasse": "-", "maj": "2012-09-10", "lat_lon": [48.8442315, 2.3304004]}, "geometry": {"type": "Point", "coordinates": [2.3304004, 48.8442315]}},{"datasetid": "liste-des-cafes-a-un-euro", "recordid": "5c241b7f9743916e9cd20c4f8715949c628e4788", "fields": {"salle": "-", "nom": "Caf\u00e9 de la Mairie (du VIII)", "comptoir": 1.0, "arrondissement": 75008, "adresse": "rue de Lisbonne 75008 Paris", "terrasse": "-", "maj": "2012-06-27", "lat_lon": [48.8774286, 2.3081805]}, "geometry": {"type": "Point", "coordinates": [2.3081805, 48.8774286]}},{"datasetid": "liste-des-cafes-a-un-euro", "recordid": "aa1f5787e809c1bc746c1f7fdc116ddfaf53ba94", "fields": {"salle": "1", "nom": "La Brocante", "comptoir": 1.0, "arrondissement": 75009, "adresse": "10 rue Rossini 75009 Paris", "terrasse": "-", "maj": "2012-10-22", "lat_lon": [48.8731654, 2.339198]}, "geometry": {"type": "Point", "coordinates": [2.339198, 48.8731654]}},{"datasetid": "liste-des-cafes-a-un-euro", "recordid": "0dcfb3f64e3fec14cbead62e8474b5c938128d36", "fields": {"salle": "1", "nom": "Le chantereine", "comptoir": 1.0, "arrondissement": 75009, "adresse": "51 Rue Victoire 75009 Paris", "terrasse": "-", "maj": "2012-10-22", "lat_lon": [48.8752033, 2.3352841]}, "geometry": {"type": "Point", "coordinates": [2.3352841, 48.8752033]}},{"datasetid": "liste-des-cafes-a-un-euro", "recordid": "61812569cc6ca4b7dc324765855b386ffbce3255", "fields": {"salle": "-", "nom": "O'Paris", "comptoir": 1.0, "arrondissement": 75020, "adresse": "1 Rue des Envierges 75020 Paris", "terrasse": "-", "maj": "2013-08-14", "lat_lon": [48.8715903, 2.3858703]}, "geometry": {"type": "Point", "coordinates": [2.3858703, 48.8715903]}},{"datasetid": "liste-des-cafes-a-un-euro", "recordid": "f55d4b240dd563a8d02c7dfbd85f4dfb17271f9c", "fields": {"salle": "-", "nom": "La Marine", "comptoir": 1.0, "arrondissement": 75010, "adresse": "55 bis quai de valmy 75010 Paris", "terrasse": "-", "maj": "2013-08-14", "lat_lon": [48.8805969, 2.3675729]}, "geometry": {"type": "Point", "coordinates": [2.3675729, 48.8805969]}},{"datasetid": "liste-des-cafes-a-un-euro", "recordid": "afb94fb3fd54de2e440b98c533be41789ca8cb9e", "fields": {"salle": "-", "nom": "Le Pas Sage", "comptoir": 1.0, "arrondissement": 75002, "adresse": "1 Passage du Grand Cerf 75002 Paris", "terrasse": "-", "maj": "2013-08-14", "lat_lon": [48.8646687, 2.3500329]}, "geometry": {"type": "Point", "coordinates": [2.3500329, 48.8646687]}},{"datasetid": "liste-des-cafes-a-un-euro", "recordid": "9ee63fbb99f6b9840272abcf4d13d675f2e27480", "fields": {"salle": "-", "nom": "La Renaissance", "comptoir": 1.0, "arrondissement": 75018, "adresse": "112 Rue Championnet 75018 Paris", "terrasse": "-", "maj": "2013-08-14", "lat_lon": [48.8954593, 2.3495568]}, "geometry": {"type": "Point", "coordinates": [2.3495568, 48.8954593]}}]