[{"datasetid": "liste_des_sites_des_hotspots_paris_wifi", "recordid": "liste_sites_hotpsots_paris_wifi_geocoded/0", "fields": {"ville": "PARIS", "adresse_complete": "227, Rue de Bercy 75012 PARIS France", "nom_site": "DSTI", "adresse": "227, Rue de Bercy", "geo_coordinates": [48.8466, 2.36977], "cp": "75012"}, "geometry": {"type": "Point", "coordinates": [2.36977, 48.8466]}},{"datasetid": "liste_des_sites_des_hotspots_paris_wifi", "recordid": "liste_sites_hotpsots_paris_wifi_geocoded/5", "fields": {"ville": "PARIS", "adresse_complete": "8, Rue Des Recollets 75010 PARIS France", "nom_site": "Jardin Villemin", "adresse": "8, Rue Des Recollets", "geo_coordinates": [48.874432, 2.36186], "cp": "75010"}, "geometry": {"type": "Point", "coordinates": [2.36186, 48.874432]}},{"datasetid": "liste_des_sites_des_hotspots_paris_wifi", "recordid": "liste_sites_hotpsots_paris_wifi_geocoded/12", "fields": {"ville": "PARIS", "adresse_complete": "4, Place De L'Hotel De Ville 75004 PARIS France", "nom_site": "Parvis De L'Hotel De Ville", "adresse": "4, Place De L'Hotel De Ville", "geo_coordinates": [48.85694, 2.35212], "cp": "75004"}, "geometry": {"type": "Point", "coordinates": [2.35212, 48.85694]}},{"datasetid": "liste_des_sites_des_hotspots_paris_wifi", "recordid": "liste_sites_hotpsots_paris_wifi_geocoded/17", "fields": {"ville": "PARIS", "adresse_complete": "43, Rue De L'Orillon 75011 PARIS France", "nom_site": "Antenne Jeune Orillon", "adresse": "43, Rue De L'Orillon", "geo_coordinates": [48.87051, 2.37733], "cp": "75011"}, "geometry": {"type": "Point", "coordinates": [2.37733, 48.87051]}},{"datasetid": "liste_des_sites_des_hotspots_paris_wifi", "recordid": "liste_sites_hotpsots_paris_wifi_geocoded/24", "fields": {"ville": "PARIS", "adresse_complete": "36, Rue Emeriau 75015 PARIS France", "nom_site": "Biblioth\u00e8que Beaugrenelle", "adresse": "36, Rue Emeriau", "geo_coordinates": [48.849998, 2.28643], "cp": "75015"}, "geometry": {"type": "Point", "coordinates": [2.28643, 48.849998]}},{"datasetid": "liste_des_sites_des_hotspots_paris_wifi", "recordid": "liste_sites_hotpsots_paris_wifi_geocoded/29", "fields": {"ville": "PARIS", "adresse_complete": "2, Passage Des Petits Peres 75002 PARIS France", "nom_site": "Biblioth\u00e8que Charlote Delbo", "adresse": "2, Passage Des Petits Peres", "geo_coordinates": [48.866459, 2.34039], "cp": "75002"}, "geometry": {"type": "Point", "coordinates": [2.34039, 48.866459]}},{"datasetid": "liste_des_sites_des_hotspots_paris_wifi", "recordid": "liste_sites_hotpsots_paris_wifi_geocoded/31", "fields": {"ville": "PARIS", "adresse_complete": "29, Rue Hermel 75018 PARIS France", "nom_site": "Biblioth\u00e8que Clignancourt", "adresse": "29, Rue Hermel", "geo_coordinates": [48.89151, 2.34451], "cp": "75018"}, "geometry": {"type": "Point", "coordinates": [2.34451, 48.89151]}},{"datasetid": "liste_des_sites_des_hotspots_paris_wifi", "recordid": "liste_sites_hotpsots_paris_wifi_geocoded/36", "fields": {"ville": "PARIS", "adresse_complete": "42, Rue Daumesnil 75012 PARIS France", "nom_site": "Biblioth\u00e8que Diderot", "adresse": "42, Rue Daumesnil", "geo_coordinates": [48.846088, 2.37785], "cp": "75012"}, "geometry": {"type": "Point", "coordinates": [2.37785, 48.846088]}},{"datasetid": "liste_des_sites_des_hotspots_paris_wifi", "recordid": "liste_sites_hotpsots_paris_wifi_geocoded/43", "fields": {"ville": "PARIS", "adresse_complete": "Forum Des Halles 75001 PARIS France", "nom_site": "Biblioth\u00e8que Francois Truffaut", "adresse": "Forum Des Halles", "geo_coordinates": [48.861221, 2.34784], "cp": "75001"}, "geometry": {"type": "Point", "coordinates": [2.34784, 48.861221]}},{"datasetid": "liste_des_sites_des_hotspots_paris_wifi", "recordid": "liste_sites_hotpsots_paris_wifi_geocoded/48", "fields": {"ville": "PARIS", "adresse_complete": "8, Rue De La Montagne D'Aulas 75015 PARIS France", "nom_site": "Biblioth\u00e8que Gutenberg", "adresse": "8, Rue De La Montagne D'Aulas", "geo_coordinates": [48.840271, 2.27868], "cp": "75015"}, "geometry": {"type": "Point", "coordinates": [2.27868, 48.840271]}},{"datasetid": "liste_des_sites_des_hotspots_paris_wifi", "recordid": "liste_sites_hotpsots_paris_wifi_geocoded/50", "fields": {"ville": "PARIS", "adresse_complete": "6, Rue Des Pretres Saint Severin 75005 PARIS France", "nom_site": "Biblioth\u00e8que Heure Joyeuse", "adresse": "6, Rue Des Pretres Saint Severin", "geo_coordinates": [48.852039, 2.34513], "cp": "75005"}, "geometry": {"type": "Point", "coordinates": [2.34513, 48.852039]}},{"datasetid": "liste_des_sites_des_hotspots_paris_wifi", "recordid": "liste_sites_hotpsots_paris_wifi_geocoded/55", "fields": {"ville": "PARIS", "adresse_complete": "11, Rue De Lancry 75010 PARIS France", "nom_site": "Biblioth\u00e8que Lancry", "adresse": "11, Rue De Lancry", "geo_coordinates": [48.86935, 2.36038], "cp": "75010"}, "geometry": {"type": "Point", "coordinates": [2.36038, 48.86935]}},{"datasetid": "liste_des_sites_des_hotspots_paris_wifi", "recordid": "liste_sites_hotpsots_paris_wifi_geocoded/62", "fields": {"ville": "PARIS", "adresse_complete": "17, Boulevard Morland 75004 PARIS France", "nom_site": "Biblioth\u00e8que Personnel", "adresse": "17, Boulevard Morland", "geo_coordinates": [48.85006, 2.3634], "cp": "75004"}, "geometry": {"type": "Point", "coordinates": [2.3634, 48.85006]}},{"datasetid": "liste_des_sites_des_hotspots_paris_wifi", "recordid": "liste_sites_hotpsots_paris_wifi_geocoded/67", "fields": {"ville": "PARIS", "adresse_complete": "29-35, Rue Des Haies 75020 PARIS France", "nom_site": "Biblioth\u00e8que Reunion", "adresse": "29-35, Rue Des Haies", "geo_coordinates": [48.853119, 2.40104], "cp": "75020"}, "geometry": {"type": "Point", "coordinates": [2.40104, 48.853119]}},{"datasetid": "liste_des_sites_des_hotspots_paris_wifi", "recordid": "liste_sites_hotpsots_paris_wifi_geocoded/74", "fields": {"ville": "PARIS", "adresse_complete": "24, Rue De Rochechouart 75009 PARIS France", "nom_site": "Biblioth\u00e8que Valeyre", "adresse": "24, Rue De Rochechouart", "geo_coordinates": [48.877979, 2.34486], "cp": "75009"}, "geometry": {"type": "Point", "coordinates": [2.34486, 48.877979]}},{"datasetid": "liste_des_sites_des_hotspots_paris_wifi", "recordid": "liste_sites_hotpsots_paris_wifi_geocoded/79", "fields": {"ville": "PARIS", "adresse_complete": "3, Rue Du Chateau D'Eau 75010 PARIS France", "nom_site": "Bourse Du Travail", "adresse": "3, Rue Du Chateau D'Eau", "geo_coordinates": [48.86911, 2.36215], "cp": "75010"}, "geometry": {"type": "Point", "coordinates": [2.36215, 48.86911]}},{"datasetid": "liste_des_sites_des_hotspots_paris_wifi", "recordid": "liste_sites_hotpsots_paris_wifi_geocoded/81", "fields": {"ville": "PARIS", "adresse_complete": "9, Rue De La Montagne D'Aulas 75015 PARIS France", "nom_site": "Centre Animation Espace Cevennes", "adresse": "9, Rue De La Montagne D'Aulas", "geo_coordinates": [48.840302, 2.27893], "cp": "75015"}, "geometry": {"type": "Point", "coordinates": [2.27893, 48.840302]}},{"datasetid": "liste_des_sites_des_hotspots_paris_wifi", "recordid": "liste_sites_hotpsots_paris_wifi_geocoded/86", "fields": {"ville": "PARIS", "adresse_complete": "208, Rue Du Faubourg Saint Honore 75008 PARIS France", "nom_site": "Centre d'Animation Espace Beaujon", "adresse": "208, Rue Du Faubourg Saint Honore", "geo_coordinates": [48.87532, 2.30453], "cp": "75008"}, "geometry": {"type": "Point", "coordinates": [2.30453, 48.87532]}},{"datasetid": "liste_des_sites_des_hotspots_paris_wifi", "recordid": "liste_sites_hotpsots_paris_wifi_geocoded/93", "fields": {"ville": "PARIS", "adresse_complete": "30, Rue Louis Lumiere 75020 PARIS France", "nom_site": "Centre Sportif Louis Lumiere", "adresse": "30, Rue Louis Lumiere", "geo_coordinates": [48.85918, 2.41146], "cp": "75020"}, "geometry": {"type": "Point", "coordinates": [2.41146, 48.85918]}},{"datasetid": "liste_des_sites_des_hotspots_paris_wifi", "recordid": "liste_sites_hotpsots_paris_wifi_geocoded/98", "fields": {"ville": "PARIS", "adresse_complete": "24, Rue Des Ecoles 75005 PARIS France", "nom_site": "E.C.A Rive Gauche", "adresse": "24, Rue Des Ecoles", "geo_coordinates": [48.848751, 2.348], "cp": "75005"}, "geometry": {"type": "Point", "coordinates": [2.348, 48.848751]}},{"datasetid": "liste_des_sites_des_hotspots_paris_wifi", "recordid": "liste_sites_hotpsots_paris_wifi_geocoded/104", "fields": {"ville": "PARIS", "adresse_complete": "31, Rue Des Francs Bourgeois 75004 PARIS France", "nom_site": "Hotel D Albret", "adresse": "31, Rue Des Francs Bourgeois", "geo_coordinates": [48.857601, 2.36093], "cp": "75004"}, "geometry": {"type": "Point", "coordinates": [2.36093, 48.857601]}},{"datasetid": "liste_des_sites_des_hotspots_paris_wifi", "recordid": "liste_sites_hotpsots_paris_wifi_geocoded/109", "fields": {"ville": "PARIS", "adresse_complete": "Rue Du Chateau Des Rentiers 75013 PARIS France", "nom_site": "Jardin Chateau Des Rentiers", "adresse": "Rue Du Chateau Des Rentiers", "geo_coordinates": [48.826317, 2.369109], "cp": "75013"}, "geometry": {"type": "Point", "coordinates": [2.369109, 48.826317]}},{"datasetid": "liste_des_sites_des_hotspots_paris_wifi", "recordid": "liste_sites_hotpsots_paris_wifi_geocoded/111", "fields": {"ville": "PARIS", "adresse_complete": "36, Rue Du Chevaleret 75013 PARIS France", "nom_site": "Jardin Cyprian Norwid", "adresse": "36, Rue Du Chevaleret", "geo_coordinates": [48.828129, 2.37666], "cp": "75013"}, "geometry": {"type": "Point", "coordinates": [2.37666, 48.828129]}},{"datasetid": "liste_des_sites_des_hotspots_paris_wifi", "recordid": "liste_sites_hotpsots_paris_wifi_geocoded/116", "fields": {"ville": "PARIS", "adresse_complete": "Rue Des Cendriers 75020 PARIS France", "nom_site": "Jardin Des Amandiers", "adresse": "Rue Des Cendriers", "geo_coordinates": [48.865696, 2.387367], "cp": "75020"}, "geometry": {"type": "Point", "coordinates": [2.387367, 48.865696]}},{"datasetid": "liste_des_sites_des_hotspots_paris_wifi", "recordid": "liste_sites_hotpsots_paris_wifi_geocoded/123", "fields": {"ville": "PARIS", "adresse_complete": "3, Avenue Maurice D'Ocagne 75014 PARIS France", "nom_site": "Jardin Jules Noel", "adresse": "3, Avenue Maurice D'Ocagne", "geo_coordinates": [48.82457, 2.31402], "cp": "75014"}, "geometry": {"type": "Point", "coordinates": [2.31402, 48.82457]}},{"datasetid": "liste_des_sites_des_hotspots_paris_wifi", "recordid": "liste_sites_hotpsots_paris_wifi_geocoded/128", "fields": {"ville": "PARIS", "adresse_complete": "28, Rue Edgar Faure 75015 PARIS France", "nom_site": "Jardin Nicole De Hauteclocque", "adresse": "28, Rue Edgar Faure", "geo_coordinates": [48.851798, 2.295668], "cp": "75015"}, "geometry": {"type": "Point", "coordinates": [2.295668, 48.851798]}},{"datasetid": "liste_des_sites_des_hotspots_paris_wifi", "recordid": "liste_sites_hotpsots_paris_wifi_geocoded/130", "fields": {"ville": "PARIS", "adresse_complete": "20, Avenue Ferdinand Buisson 75016 PARIS France", "nom_site": "Jardin Porte De Saint Cloud", "adresse": "20, Avenue Ferdinand Buisson", "geo_coordinates": [48.836784, 2.253456], "cp": "75016"}, "geometry": {"type": "Point", "coordinates": [2.253456, 48.836784]}},{"datasetid": "liste_des_sites_des_hotspots_paris_wifi", "recordid": "liste_sites_hotpsots_paris_wifi_geocoded/135", "fields": {"ville": "PARIS", "adresse_complete": "72, Rue Du Faubourg Saint Martin 75010 PARIS France", "nom_site": "Mairie du 10E Arrondissement", "adresse": "72, Rue Du Faubourg Saint Martin", "geo_coordinates": [48.871818, 2.35722], "cp": "75010"}, "geometry": {"type": "Point", "coordinates": [2.35722, 48.871818]}},{"datasetid": "liste_des_sites_des_hotspots_paris_wifi", "recordid": "liste_sites_hotpsots_paris_wifi_geocoded/142", "fields": {"ville": "PARIS", "adresse_complete": "16, Rue Des Batignolles 75017 PARIS France", "nom_site": "Mairie du 17E Arrondissement", "adresse": "16, Rue Des Batignolles", "geo_coordinates": [48.884251, 2.32202], "cp": "75017"}, "geometry": {"type": "Point", "coordinates": [2.32202, 48.884251]}},{"datasetid": "liste_des_sites_des_hotspots_paris_wifi", "recordid": "liste_sites_hotpsots_paris_wifi_geocoded/147", "fields": {"ville": "PARIS", "adresse_complete": "8, Rue De La Banque 75002 PARIS France", "nom_site": "Mairie du 2E Arrondissement", "adresse": "8, Rue De La Banque", "geo_coordinates": [48.866852, 2.34037], "cp": "75002"}, "geometry": {"type": "Point", "coordinates": [2.34037, 48.866852]}},{"datasetid": "liste_des_sites_des_hotspots_paris_wifi", "recordid": "liste_sites_hotpsots_paris_wifi_geocoded/154", "fields": {"ville": "PARIS", "adresse_complete": "6, Rue Drouot 75009 PARIS France", "nom_site": "Mairie du 9E Arrondissement", "adresse": "6, Rue Drouot", "geo_coordinates": [48.872601, 2.34044], "cp": "75009"}, "geometry": {"type": "Point", "coordinates": [2.34044, 48.872601]}},{"datasetid": "liste_des_sites_des_hotspots_paris_wifi", "recordid": "liste_sites_hotpsots_paris_wifi_geocoded/159", "fields": {"ville": "PARIS", "adresse_complete": "38 , Boulevard Henry IV 75004 PARIS France", "nom_site": "Maison des Associations Du 04eme", "adresse": "38 , Boulevard Henry IV", "geo_coordinates": [48.852291, 2.36628], "cp": "75004"}, "geometry": {"type": "Point", "coordinates": [2.36628, 48.852291]}},{"datasetid": "liste_des_sites_des_hotspots_paris_wifi", "recordid": "liste_sites_hotpsots_paris_wifi_geocoded/161", "fields": {"ville": "PARIS", "adresse_complete": "206, Quai De Valmy 75010 PARIS France", "nom_site": "Maison des Associations Du 10eme", "adresse": "206, Quai De Valmy", "geo_coordinates": [48.88216, 2.36892], "cp": "75010"}, "geometry": {"type": "Point", "coordinates": [2.36892, 48.88216]}},{"datasetid": "liste_des_sites_des_hotspots_paris_wifi", "recordid": "liste_sites_hotpsots_paris_wifi_geocoded/166", "fields": {"ville": "PARIS", "adresse_complete": "22, Rue Deparcieux 75014 PARIS France", "nom_site": "Maison des Associations Du 14eme", "adresse": "22, Rue Deparcieux", "geo_coordinates": [48.835579, 2.32588], "cp": "75014"}, "geometry": {"type": "Point", "coordinates": [2.32588, 48.835579]}},{"datasetid": "liste_des_sites_des_hotspots_paris_wifi", "recordid": "liste_sites_hotpsots_paris_wifi_geocoded/173", "fields": {"ville": "PARIS", "adresse_complete": "2, Rue Eugene Spuller 75003 PARIS France", "nom_site": "Maison des Associations Du 03eme", "adresse": "2, Rue Eugene Spuller", "geo_coordinates": [48.864029, 2.36144], "cp": "75003"}, "geometry": {"type": "Point", "coordinates": [2.36144, 48.864029]}},{"datasetid": "liste_des_sites_des_hotspots_paris_wifi", "recordid": "liste_sites_hotpsots_paris_wifi_geocoded/178", "fields": {"ville": "PARIS", "adresse_complete": "27, Rue Du Maroc 75019 PARIS France", "nom_site": "Maison Du Developpement Economique Du 19eme", "adresse": "27, Rue Du Maroc", "geo_coordinates": [48.88702, 2.3679], "cp": "75019"}, "geometry": {"type": "Point", "coordinates": [2.3679, 48.88702]}},{"datasetid": "liste_des_sites_des_hotspots_paris_wifi", "recordid": "liste_sites_hotpsots_paris_wifi_geocoded/180", "fields": {"ville": "PARIS", "adresse_complete": "50, Rue Des Tournelles 75003 PARIS France", "nom_site": "Maison Initiatives Etudiantes", "adresse": "50, Rue Des Tournelles", "geo_coordinates": [48.85622, 2.3673], "cp": "75003"}, "geometry": {"type": "Point", "coordinates": [2.3673, 48.85622]}},{"datasetid": "liste_des_sites_des_hotspots_paris_wifi", "recordid": "liste_sites_hotpsots_paris_wifi_geocoded/185", "fields": {"ville": "PARIS", "adresse_complete": "1, Avenue Dutuit 75008 PARIS France", "nom_site": "Musee Du Petit Palais", "adresse": "1, Avenue Dutuit", "geo_coordinates": [48.866083, 2.31564], "cp": "75008"}, "geometry": {"type": "Point", "coordinates": [2.31564, 48.866083]}},{"datasetid": "liste_des_sites_des_hotspots_paris_wifi", "recordid": "liste_sites_hotpsots_paris_wifi_geocoded/192", "fields": {"ville": "PARIS", "adresse_complete": "45, Rue Des Couronnes 75020 PARIS France", "nom_site": "Parc de Belleville", "adresse": "45, Rue Des Couronnes", "geo_coordinates": [48.870258, 2.38482], "cp": "75020"}, "geometry": {"type": "Point", "coordinates": [2.38482, 48.870258]}},{"datasetid": "liste_des_sites_des_hotspots_paris_wifi", "recordid": "liste_sites_hotpsots_paris_wifi_geocoded/197", "fields": {"ville": "PARIS", "adresse_complete": "1, Cour Chamonard 75012 PARIS France", "nom_site": "Parc de Bercy (orangerie)", "adresse": "1, Cour Chamonard", "geo_coordinates": [48.835124, 2.41756], "cp": "75012"}, "geometry": {"type": "Point", "coordinates": [2.41756, 48.835124]}},{"datasetid": "liste_des_sites_des_hotspots_paris_wifi", "recordid": "liste_sites_hotpsots_paris_wifi_geocoded/200", "fields": {"ville": "PARIS", "adresse_complete": "160, Avenue De Choisy 75013 PARIS France", "nom_site": "Parc de Choisy", "adresse": "160, Avenue De Choisy", "geo_coordinates": [48.828659, 2.35795], "cp": "75013"}, "geometry": {"type": "Point", "coordinates": [2.35795, 48.828659]}},{"datasetid": "liste_des_sites_des_hotspots_paris_wifi", "recordid": "liste_sites_hotpsots_paris_wifi_geocoded/205", "fields": {"ville": "PARIS", "adresse_complete": "4, Place Armand Carrel 75019 PARIS France", "nom_site": "Parc des Buttes Chaumont (Carrel)", "adresse": "4, Place Armand Carrel", "geo_coordinates": [48.88274, 2.38249], "cp": "75019"}, "geometry": {"type": "Point", "coordinates": [2.38249, 48.88274]}},{"datasetid": "liste_des_sites_des_hotspots_paris_wifi", "recordid": "liste_sites_hotpsots_paris_wifi_geocoded/212", "fields": {"ville": "PARIS", "adresse_complete": "2, Rue Gazan 75014 PARIS France", "nom_site": "Parc Montsouris", "adresse": "2, Rue Gazan", "geo_coordinates": [48.82452, 2.33994], "cp": "75014"}, "geometry": {"type": "Point", "coordinates": [2.33994, 48.82452]}},{"datasetid": "liste_des_sites_des_hotspots_paris_wifi", "recordid": "liste_sites_hotpsots_paris_wifi_geocoded/217", "fields": {"ville": "PARIS", "adresse_complete": "Allee Vivaldi 75012 PARIS France", "nom_site": "Promenade Plantee", "adresse": "Allee Vivaldi", "geo_coordinates": [48.841576, 2.391099], "cp": "75012"}, "geometry": {"type": "Point", "coordinates": [2.391099, 48.841576]}},{"datasetid": "liste_des_sites_des_hotspots_paris_wifi", "recordid": "liste_sites_hotpsots_paris_wifi_geocoded/224", "fields": {"ville": "PARIS", "adresse_complete": "17, Rue Boy Zelenski 75010 PARIS France", "nom_site": "Square Amadou Hampate Ba", "adresse": "17, Rue Boy Zelenski", "geo_coordinates": [48.87743, 2.36839], "cp": "75010"}, "geometry": {"type": "Point", "coordinates": [2.36839, 48.87743]}},{"datasetid": "liste_des_sites_des_hotspots_paris_wifi", "recordid": "liste_sites_hotpsots_paris_wifi_geocoded/229", "fields": {"ville": "PARIS", "adresse_complete": "Rue Rottembourg 75012 PARIS France", "nom_site": "Square Charles Peguy", "adresse": "Rue Rottembourg", "geo_coordinates": [48.838314, 2.406186], "cp": "75012"}, "geometry": {"type": "Point", "coordinates": [2.406186, 48.838314]}},{"datasetid": "liste_des_sites_des_hotspots_paris_wifi", "recordid": "liste_sites_hotpsots_paris_wifi_geocoded/231", "fields": {"ville": "PARIS", "adresse_complete": "2, Place Denfert Rochereau 75014 PARIS France", "nom_site": "Square Claude Nicolas Ledoux", "adresse": "2, Place Denfert Rochereau", "geo_coordinates": [48.835029, 2.332088], "cp": "75014"}, "geometry": {"type": "Point", "coordinates": [2.332088, 48.835029]}},{"datasetid": "liste_des_sites_des_hotspots_paris_wifi", "recordid": "liste_sites_hotpsots_paris_wifi_geocoded/236", "fields": {"ville": "PARIS", "adresse_complete": "Rue Saint Blaise 75020 PARIS France", "nom_site": "Square De La Salamandre", "adresse": "Rue Saint Blaise", "geo_coordinates": [48.85807, 2.407029], "cp": "75020"}, "geometry": {"type": "Point", "coordinates": [2.407029, 48.85807]}},{"datasetid": "liste_des_sites_des_hotspots_paris_wifi", "recordid": "liste_sites_hotpsots_paris_wifi_geocoded/243", "fields": {"ville": "PARIS", "adresse_complete": "2, Rue Gustave Charpentier 75017 PARIS France", "nom_site": "Square Du Cardinal Petit De Julleville", "adresse": "2, Rue Gustave Charpentier", "geo_coordinates": [48.882381, 2.28255], "cp": "75017"}, "geometry": {"type": "Point", "coordinates": [2.28255, 48.882381]}},{"datasetid": "liste_des_sites_des_hotspots_paris_wifi", "recordid": "liste_sites_hotpsots_paris_wifi_geocoded/248", "fields": {"ville": "PARIS", "adresse_complete": "Rue Le Vau 75020 PARIS France", "nom_site": "Square Emmanuelle Fleury", "adresse": "Rue Le Vau", "geo_coordinates": [48.868038, 2.410999], "cp": "75020"}, "geometry": {"type": "Point", "coordinates": [2.410999, 48.868038]}},{"datasetid": "liste_des_sites_des_hotspots_paris_wifi", "recordid": "liste_sites_hotpsots_paris_wifi_geocoded/250", "fields": {"ville": "PARIS", "adresse_complete": "168 Bis, Boulevard Saint Germain 75006 PARIS France", "nom_site": "Square Felix Desruelles", "adresse": "168 Bis, Boulevard Saint Germain", "geo_coordinates": [48.853359, 2.33514], "cp": "75006"}, "geometry": {"type": "Point", "coordinates": [2.33514, 48.853359]}},{"datasetid": "liste_des_sites_des_hotspots_paris_wifi", "recordid": "liste_sites_hotpsots_paris_wifi_geocoded/255", "fields": {"ville": "PARIS", "adresse_complete": "Rue Jean Anouilh 75013 PARIS France", "nom_site": "Square Georges Duhamel", "adresse": "Rue Jean Anouilh", "geo_coordinates": [48.831783, 2.377777], "cp": "75013"}, "geometry": {"type": "Point", "coordinates": [2.377777, 48.831783]}},{"datasetid": "liste_des_sites_des_hotspots_paris_wifi", "recordid": "liste_sites_hotpsots_paris_wifi_geocoded/262", "fields": {"ville": "PARIS", "adresse_complete": "Rue Du Cloitre Notre Dame 75004 PARIS France", "nom_site": "Square Jean Xxiii", "adresse": "Rue Du Cloitre Notre Dame", "geo_coordinates": [48.853126, 2.350701], "cp": "75004"}, "geometry": {"type": "Point", "coordinates": [2.350701, 48.853126]}},{"datasetid": "liste_des_sites_des_hotspots_paris_wifi", "recordid": "liste_sites_hotpsots_paris_wifi_geocoded/267", "fields": {"ville": "PARIS", "adresse_complete": "25, Rue Des Cloys 75018 PARIS France", "nom_site": "Square Leon Serpollet", "adresse": "25, Rue Des Cloys", "geo_coordinates": [48.892849, 2.33916], "cp": "75018"}, "geometry": {"type": "Point", "coordinates": [2.33916, 48.892849]}},{"datasetid": "liste_des_sites_des_hotspots_paris_wifi", "recordid": "liste_sites_hotpsots_paris_wifi_geocoded/274", "fields": {"ville": "PARIS", "adresse_complete": "105, Rue Jeanne D'Arc 75013 PARIS France", "nom_site": "Square Gustave Mesureur", "adresse": "105, Rue Jeanne D'Arc", "geo_coordinates": [48.833931, 2.36289], "cp": "75013"}, "geometry": {"type": "Point", "coordinates": [2.36289, 48.833931]}},{"datasetid": "liste_des_sites_des_hotspots_paris_wifi", "recordid": "liste_sites_hotpsots_paris_wifi_geocoded/279", "fields": {"ville": "PARIS", "adresse_complete": "Rue Pixerecourt 75020 PARIS France", "nom_site": "Square Pixerecourt", "adresse": "Rue Pixerecourt", "geo_coordinates": [48.871834, 2.395787], "cp": "75020"}, "geometry": {"type": "Point", "coordinates": [2.395787, 48.871834]}},{"datasetid": "liste_des_sites_des_hotspots_paris_wifi", "recordid": "liste_sites_hotpsots_paris_wifi_geocoded/281", "fields": {"ville": "PARIS", "adresse_complete": "Rue Lagrange 75005 PARIS France", "nom_site": "Square Rene Viviani", "adresse": "Rue Lagrange", "geo_coordinates": [48.851162, 2.34807], "cp": "75005"}, "geometry": {"type": "Point", "coordinates": [2.34807, 48.851162]}},{"datasetid": "liste_des_sites_des_hotspots_paris_wifi", "recordid": "liste_sites_hotpsots_paris_wifi_geocoded/286", "fields": {"ville": "PARIS", "adresse_complete": "1, Rue Theophraste Renaudot 75015 PARIS France", "nom_site": "Square Saint Lambert 2", "adresse": "1, Rue Theophraste Renaudot", "geo_coordinates": [48.842766, 2.295214], "cp": "75015"}, "geometry": {"type": "Point", "coordinates": [2.295214, 48.842766]}},{"datasetid": "liste_des_sites_des_hotspots_paris_wifi", "recordid": "liste_sites_hotpsots_paris_wifi_geocoded/293", "fields": {"ville": "PARIS", "adresse_complete": "7, Rue Girardon. 75018 PARIS France", "nom_site": "Square Suzanne Buisson", "adresse": "7, Rue Girardon.", "geo_coordinates": [48.888034, 2.337743], "cp": "75018"}, "geometry": {"type": "Point", "coordinates": [2.337743, 48.888034]}},{"datasetid": "liste_des_sites_des_hotspots_paris_wifi", "recordid": "liste_sites_hotpsots_paris_wifi_geocoded/298", "fields": {"ville": "PARIS", "adresse_complete": "Rue D Aubervillier 75018 PARIS France", "nom_site": "Jardin D Eole 2", "adresse": "Rue D Aubervillier", "geo_coordinates": [48.89164, 2.368965], "cp": "75018"}, "geometry": {"type": "Point", "coordinates": [2.368965, 48.89164]}},{"datasetid": "liste_des_sites_des_hotspots_paris_wifi", "recordid": "liste_sites_hotpsots_paris_wifi_geocoded/301", "fields": {"ville": "PARIS", "adresse_complete": "148 AVENUE GAMBETTA 75020 PARIS France", "nom_site": "PISCINE GEORGES VALLEREY", "adresse": "148 AVENUE GAMBETTA", "geo_coordinates": [48.875439, 2.40584], "cp": "75020"}, "geometry": {"type": "Point", "coordinates": [2.40584, 48.875439]}},{"datasetid": "liste_des_sites_des_hotspots_paris_wifi", "recordid": "liste_sites_hotpsots_paris_wifi_geocoded/306", "fields": {"ville": "PARIS", "adresse_complete": "69 RUE VIOLET 75015 PARIS France", "nom_site": "Maison Communale du 15 \u00e8me", "adresse": "69 RUE VIOLET", "geo_coordinates": [48.845638, 2.29131], "cp": "75015"}, "geometry": {"type": "Point", "coordinates": [2.29131, 48.845638]}},{"datasetid": "liste_des_sites_des_hotspots_paris_wifi", "recordid": "liste_sites_hotpsots_paris_wifi_geocoded/2", "fields": {"ville": "PARIS", "adresse_complete": "30, Rue du Faubourg Saint Antoine 75012 PARIS France", "nom_site": "Activites artisanales et creation", "adresse": "30, Rue du Faubourg Saint Antoine", "geo_coordinates": [48.85249, 2.37171], "cp": "75012"}, "geometry": {"type": "Point", "coordinates": [2.37171, 48.85249]}},{"datasetid": "liste_des_sites_des_hotspots_paris_wifi", "recordid": "liste_sites_hotpsots_paris_wifi_geocoded/7", "fields": {"ville": "PARIS", "adresse_complete": "4, Place De L'Hotel De Ville 75004 PARIS France", "nom_site": "Hotel de Ville (1er etage)", "adresse": "4, Place De L'Hotel De Ville", "geo_coordinates": [48.85694, 2.35212], "cp": "75004"}, "geometry": {"type": "Point", "coordinates": [2.35212, 48.85694]}},{"datasetid": "liste_des_sites_des_hotspots_paris_wifi", "recordid": "liste_sites_hotpsots_paris_wifi_geocoded/14", "fields": {"ville": "PARIS", "adresse_complete": "13, Rue Henard 75012 PARIS France", "nom_site": "Allee Vivaldi", "adresse": "13, Rue Henard", "geo_coordinates": [48.842049, 2.38947], "cp": "75012"}, "geometry": {"type": "Point", "coordinates": [2.38947, 48.842049]}},{"datasetid": "liste_des_sites_des_hotspots_paris_wifi", "recordid": "liste_sites_hotpsots_paris_wifi_geocoded/19", "fields": {"ville": "PARIS", "adresse_complete": "10, Rue De Fourcy 75004 PARIS France", "nom_site": "Atelier de Restauration Photographique", "adresse": "10, Rue De Fourcy", "geo_coordinates": [48.85495, 2.3592], "cp": "75004"}, "geometry": {"type": "Point", "coordinates": [2.3592, 48.85495]}},{"datasetid": "liste_des_sites_des_hotspots_paris_wifi", "recordid": "liste_sites_hotpsots_paris_wifi_geocoded/21", "fields": {"ville": "PARIS", "adresse_complete": "164, Rue De Grenelle 75007 PARIS France", "nom_site": "Biblioth\u00e8que Amelie", "adresse": "164, Rue De Grenelle", "geo_coordinates": [48.858002, 2.30898], "cp": "75007"}, "geometry": {"type": "Point", "coordinates": [2.30898, 48.858002]}},{"datasetid": "liste_des_sites_des_hotspots_paris_wifi", "recordid": "liste_sites_hotpsots_paris_wifi_geocoded/26", "fields": {"ville": "PARIS", "adresse_complete": "6, Rue Fourneyron 75017 PARIS France", "nom_site": "Biblioth\u00e8que Brochant", "adresse": "6, Rue Fourneyron", "geo_coordinates": [48.88972, 2.31957], "cp": "75017"}, "geometry": {"type": "Point", "coordinates": [2.31957, 48.88972]}},{"datasetid": "liste_des_sites_des_hotspots_paris_wifi", "recordid": "liste_sites_hotpsots_paris_wifi_geocoded/33", "fields": {"ville": "PARIS", "adresse_complete": "66, Rue Des Couronnes 75020 PARIS France", "nom_site": "Biblioth\u00e8que Couronnes", "adresse": "66, Rue Des Couronnes", "geo_coordinates": [48.8703, 2.38518], "cp": "75020"}, "geometry": {"type": "Point", "coordinates": [2.38518, 48.8703]}},{"datasetid": "liste_des_sites_des_hotspots_paris_wifi", "recordid": "liste_sites_hotpsots_paris_wifi_geocoded/38", "fields": {"ville": "PARIS", "adresse_complete": "3, Rue De Lisbonne 75008 PARIS France", "nom_site": "Biblioth\u00e8que Europe", "adresse": "3, Rue De Lisbonne", "geo_coordinates": [48.877819, 2.31751], "cp": "75008"}, "geometry": {"type": "Point", "coordinates": [2.31751, 48.877819]}},{"datasetid": "liste_des_sites_des_hotspots_paris_wifi", "recordid": "liste_sites_hotpsots_paris_wifi_geocoded/40", "fields": {"ville": "PARIS", "adresse_complete": "6, Rue Fessart 75019 PARIS France", "nom_site": "Biblioth\u00e8que Fessart", "adresse": "6, Rue Fessart", "geo_coordinates": [48.876202, 2.38816], "cp": "75019"}, "geometry": {"type": "Point", "coordinates": [2.38816, 48.876202]}},{"datasetid": "liste_des_sites_des_hotspots_paris_wifi", "recordid": "liste_sites_hotpsots_paris_wifi_geocoded/45", "fields": {"ville": "PARIS", "adresse_complete": "38, Rue Gassendi 75014 PARIS France", "nom_site": "Biblioth\u00e8que Georges Brassens", "adresse": "38, Rue Gassendi", "geo_coordinates": [48.83374, 2.32592], "cp": "75014"}, "geometry": {"type": "Point", "coordinates": [2.32592, 48.83374]}},{"datasetid": "liste_des_sites_des_hotspots_paris_wifi", "recordid": "liste_sites_hotpsots_paris_wifi_geocoded/52", "fields": {"ville": "PARIS", "adresse_complete": "21, Rue Saint Louis En L'Isle 75004 PARIS France", "nom_site": "Biblioth\u00e8que Isle Saint Louis", "adresse": "21, Rue Saint Louis En L'Isle", "geo_coordinates": [48.851551, 2.35727], "cp": "75004"}, "geometry": {"type": "Point", "coordinates": [2.35727, 48.851551]}},{"datasetid": "liste_des_sites_des_hotspots_paris_wifi", "recordid": "liste_sites_hotpsots_paris_wifi_geocoded/57", "fields": {"ville": "PARIS", "adresse_complete": "8-12, Rue Portefoin 75003 PARIS France", "nom_site": "Biblioth\u00e8que Marguerite Audoux", "adresse": "8-12, Rue Portefoin", "geo_coordinates": [48.863602, 2.36003], "cp": "75003"}, "geometry": {"type": "Point", "coordinates": [2.36003, 48.863602]}},{"datasetid": "liste_des_sites_des_hotspots_paris_wifi", "recordid": "liste_sites_hotpsots_paris_wifi_geocoded/64", "fields": {"ville": "PARIS", "adresse_complete": "18, Rue Janssen 75019 PARIS France", "nom_site": "Biblioth\u00e8que Place Des Fetes", "adresse": "18, Rue Janssen", "geo_coordinates": [48.879292, 2.39763], "cp": "75019"}, "geometry": {"type": "Point", "coordinates": [2.39763, 48.879292]}},{"datasetid": "liste_des_sites_des_hotspots_paris_wifi", "recordid": "liste_sites_hotpsots_paris_wifi_geocoded/69", "fields": {"ville": "PARIS", "adresse_complete": "23, Rue Du Colonel Rozanoff 75012 PARIS France", "nom_site": "Biblioth\u00e8que Saint Eloi", "adresse": "23, Rue Du Colonel Rozanoff", "geo_coordinates": [48.845532, 2.38722], "cp": "75012"}, "geometry": {"type": "Point", "coordinates": [2.38722, 48.845532]}},{"datasetid": "liste_des_sites_des_hotspots_paris_wifi", "recordid": "liste_sites_hotpsots_paris_wifi_geocoded/71", "fields": {"ville": "PARIS", "adresse_complete": "116, Rue De Grenelle 75007 PARIS France", "nom_site": "Biblioth\u00e8que Saint Simon", "adresse": "116, Rue De Grenelle", "geo_coordinates": [48.856819, 2.31999], "cp": "75007"}, "geometry": {"type": "Point", "coordinates": [2.31999, 48.856819]}},{"datasetid": "liste_des_sites_des_hotspots_paris_wifi", "recordid": "liste_sites_hotpsots_paris_wifi_geocoded/76", "fields": {"ville": "PARIS", "adresse_complete": "154, Rue Lecourbe 75015 PARIS France", "nom_site": "Biblioth\u00e8que Vaugirard", "adresse": "154, Rue Lecourbe", "geo_coordinates": [48.84164, 2.29938], "cp": "75015"}, "geometry": {"type": "Point", "coordinates": [2.29938, 48.84164]}},{"datasetid": "liste_des_sites_des_hotspots_paris_wifi", "recordid": "liste_sites_hotpsots_paris_wifi_geocoded/83", "fields": {"ville": "PARIS", "adresse_complete": "24, Rue Daviel 75013 PARIS France", "nom_site": "Centre d'Animation Daviel", "adresse": "24, Rue Daviel", "geo_coordinates": [48.828098, 2.34484], "cp": "75013"}, "geometry": {"type": "Point", "coordinates": [2.34484, 48.828098]}},{"datasetid": "liste_des_sites_des_hotspots_paris_wifi", "recordid": "liste_sites_hotpsots_paris_wifi_geocoded/88", "fields": {"ville": "PARIS", "adresse_complete": "6, Place Carree 75001 PARIS France", "nom_site": "Centre d'Animation Les Halles Le Marais", "adresse": "6, Place Carree", "geo_coordinates": [48.88274, 2.38249], "cp": "75001"}, "geometry": {"type": "Point", "coordinates": [2.38249, 48.88274]}},{"datasetid": "liste_des_sites_des_hotspots_paris_wifi", "recordid": "liste_sites_hotpsots_paris_wifi_geocoded/90", "fields": {"ville": "PARIS", "adresse_complete": "4, Passage Stinville 75012 PARIS France", "nom_site": "Centre d'Animation Montgallet", "adresse": "4, Passage Stinville", "geo_coordinates": [48.844219, 2.38831], "cp": "75012"}, "geometry": {"type": "Point", "coordinates": [2.38831, 48.844219]}},{"datasetid": "liste_des_sites_des_hotspots_paris_wifi", "recordid": "liste_sites_hotpsots_paris_wifi_geocoded/95", "fields": {"ville": "PARIS", "adresse_complete": "2, Rue Louis Armand 75015 PARIS France", "nom_site": "Centre Sportif Suzanne Lenglen", "adresse": "2, Rue Louis Armand", "geo_coordinates": [48.833141, 2.27663], "cp": "75015"}, "geometry": {"type": "Point", "coordinates": [2.27663, 48.833141]}},{"datasetid": "liste_des_sites_des_hotspots_paris_wifi", "recordid": "liste_sites_hotpsots_paris_wifi_geocoded/101", "fields": {"ville": "PARIS", "adresse_complete": "13, Rue Remy Dumoncel 75014 PARIS France", "nom_site": "Espace Economie Emploi Du 14eme", "adresse": "13, Rue Remy Dumoncel", "geo_coordinates": [48.829739, 2.33237], "cp": "75014"}, "geometry": {"type": "Point", "coordinates": [2.33237, 48.829739]}},{"datasetid": "liste_des_sites_des_hotspots_paris_wifi", "recordid": "liste_sites_hotpsots_paris_wifi_geocoded/106", "fields": {"ville": "PARIS", "adresse_complete": "5, Place Des Cinq Martyrs Du Lyc\u00e9e Buffon 75015 PARIS France", "nom_site": "Jardin Atlantique", "adresse": "5, Place Des Cinq Martyrs Du Lyc\u00e9e Buffon", "geo_coordinates": [48.838791, 2.31683], "cp": "75015"}, "geometry": {"type": "Point", "coordinates": [2.31683, 48.838791]}},{"datasetid": "liste_des_sites_des_hotspots_paris_wifi", "recordid": "liste_sites_hotpsots_paris_wifi_geocoded/113", "fields": {"ville": "PARIS", "adresse_complete": "Boulevard Macdonald 75019 PARIS France", "nom_site": "Square Claude Bernard", "adresse": "Boulevard Macdonald", "geo_coordinates": [48.898666, 2.378679], "cp": "75019"}, "geometry": {"type": "Point", "coordinates": [2.378679, 48.898666]}},{"datasetid": "liste_des_sites_des_hotspots_paris_wifi", "recordid": "liste_sites_hotpsots_paris_wifi_geocoded/118", "fields": {"ville": "PARIS", "adresse_complete": "1, Place Du Onze Novembre 1918 75016 PARIS France", "nom_site": "Jardin Du Trocadero", "adresse": "1, Place Du Onze Novembre 1918", "geo_coordinates": [48.87599, 2.35926], "cp": "75016"}, "geometry": {"type": "Point", "coordinates": [2.35926, 48.87599]}},{"datasetid": "liste_des_sites_des_hotspots_paris_wifi", "recordid": "liste_sites_hotpsots_paris_wifi_geocoded/120", "fields": {"ville": "PARIS", "adresse_complete": "59, Boulevard Davout 75020 PARIS France", "nom_site": "Jardin Gare De Charonne", "adresse": "59, Boulevard Davout", "geo_coordinates": [48.852329, 2.41075], "cp": "75020"}, "geometry": {"type": "Point", "coordinates": [2.41075, 48.852329]}},{"datasetid": "liste_des_sites_des_hotspots_paris_wifi", "recordid": "liste_sites_hotpsots_paris_wifi_geocoded/125", "fields": {"ville": "PARIS", "adresse_complete": "237, Rue De Tolbiac 75013 PARIS France", "nom_site": "Jardin Michelet", "adresse": "237, Rue De Tolbiac", "geo_coordinates": [48.82626, 2.34301], "cp": "75013"}, "geometry": {"type": "Point", "coordinates": [2.34301, 48.82626]}},{"datasetid": "liste_des_sites_des_hotspots_paris_wifi", "recordid": "liste_sites_hotpsots_paris_wifi_geocoded/132", "fields": {"ville": "PARIS", "adresse_complete": "8 Quai Saint Bernard 75005 PARIS France", "nom_site": "Jardin Tino Rossi", "adresse": "8 Quai Saint Bernard", "geo_coordinates": [48.847408, 2.36012], "cp": "75005"}, "geometry": {"type": "Point", "coordinates": [2.36012, 48.847408]}},{"datasetid": "liste_des_sites_des_hotspots_paris_wifi", "recordid": "liste_sites_hotpsots_paris_wifi_geocoded/137", "fields": {"ville": "PARIS", "adresse_complete": "130, Avenue Daumesnil 75012 PARIS France", "nom_site": "Mairie du 12E Arrondissement", "adresse": "130, Avenue Daumesnil", "geo_coordinates": [48.841259, 2.3884], "cp": "75012"}, "geometry": {"type": "Point", "coordinates": [2.3884, 48.841259]}},{"datasetid": "liste_des_sites_des_hotspots_paris_wifi", "recordid": "liste_sites_hotpsots_paris_wifi_geocoded/144", "fields": {"ville": "PARIS", "adresse_complete": "5, Place Armand Carrel 75019 PARIS France", "nom_site": "Mairie du 19E Arrondissement", "adresse": "5, Place Armand Carrel", "geo_coordinates": [48.882622, 2.38203], "cp": "75019"}, "geometry": {"type": "Point", "coordinates": [2.38203, 48.882622]}},{"datasetid": "liste_des_sites_des_hotspots_paris_wifi", "recordid": "liste_sites_hotpsots_paris_wifi_geocoded/149", "fields": {"ville": "PARIS", "adresse_complete": "2, Place Baudoyer 75004 PARIS France", "nom_site": "Mairie du 4E Arrondissement", "adresse": "2, Place Baudoyer", "geo_coordinates": [48.856209, 2.35543], "cp": "75004"}, "geometry": {"type": "Point", "coordinates": [2.35543, 48.856209]}},{"datasetid": "liste_des_sites_des_hotspots_paris_wifi", "recordid": "liste_sites_hotpsots_paris_wifi_geocoded/151", "fields": {"ville": "PARIS", "adresse_complete": "78, Rue Bonaparte 75006 PARIS France", "nom_site": "Mairie du 6E Arrondissement", "adresse": "78, Rue Bonaparte", "geo_coordinates": [48.85072, 2.33282], "cp": "75006"}, "geometry": {"type": "Point", "coordinates": [2.33282, 48.85072]}},{"datasetid": "liste_des_sites_des_hotspots_paris_wifi", "recordid": "liste_sites_hotpsots_paris_wifi_geocoded/156", "fields": {"ville": "PARIS", "adresse_complete": "126, Avenue D'Italie 75013 PARIS France", "nom_site": "Maison de L'Emploi Du 13eme", "adresse": "126, Avenue D'Italie", "geo_coordinates": [48.82375, 2.35801], "cp": "75013"}, "geometry": {"type": "Point", "coordinates": [2.35801, 48.82375]}},{"datasetid": "liste_des_sites_des_hotspots_paris_wifi", "recordid": "liste_sites_hotpsots_paris_wifi_geocoded/163", "fields": {"ville": "PARIS", "adresse_complete": "181, Avenue Daumesnil 75012 PARIS France", "nom_site": "Maison des Associations Du 12eme", "adresse": "181, Avenue Daumesnil", "geo_coordinates": [48.840359, 2.39238], "cp": "75012"}, "geometry": {"type": "Point", "coordinates": [2.39238, 48.840359]}},{"datasetid": "liste_des_sites_des_hotspots_paris_wifi", "recordid": "liste_sites_hotpsots_paris_wifi_geocoded/168", "fields": {"ville": "PARIS", "adresse_complete": "16, Avenue Rene Boylesve 75016 PARIS France", "nom_site": "Maison des Associations Du 16eme", "adresse": "16, Avenue Rene Boylesve", "geo_coordinates": [48.85672, 2.28372], "cp": "75016"}, "geometry": {"type": "Point", "coordinates": [2.28372, 48.85672]}},{"datasetid": "liste_des_sites_des_hotspots_paris_wifi", "recordid": "liste_sites_hotpsots_paris_wifi_geocoded/170", "fields": {"ville": "PARIS", "adresse_complete": "20, Rue Edouard Pailleron 75019 PARIS France", "nom_site": "Maison des Associations Du 19eme", "adresse": "20, Rue Edouard Pailleron", "geo_coordinates": [48.880489, 2.37645], "cp": "75019"}, "geometry": {"type": "Point", "coordinates": [2.37645, 48.880489]}},{"datasetid": "liste_des_sites_des_hotspots_paris_wifi", "recordid": "liste_sites_hotpsots_paris_wifi_geocoded/175", "fields": {"ville": "PARIS", "adresse_complete": "93, Rue Saint Dominique 75007 PARIS France", "nom_site": "Maison des Associations Du 07eme", "adresse": "93, Rue Saint Dominique", "geo_coordinates": [48.859638, 2.30718], "cp": "75007"}, "geometry": {"type": "Point", "coordinates": [2.30718, 48.859638]}},{"datasetid": "liste_des_sites_des_hotspots_paris_wifi", "recordid": "liste_sites_hotpsots_paris_wifi_geocoded/182", "fields": {"ville": "PARIS", "adresse_complete": "23, Rue De Sevigne 75003 PARIS France", "nom_site": "Musee Carnavalet", "adresse": "23, Rue De Sevigne", "geo_coordinates": [48.857029, 2.36292], "cp": "75003"}, "geometry": {"type": "Point", "coordinates": [2.36292, 48.857029]}},{"datasetid": "liste_des_sites_des_hotspots_paris_wifi", "recordid": "liste_sites_hotpsots_paris_wifi_geocoded/187", "fields": {"ville": "PARIS", "adresse_complete": "5, Rue De La Montagne De La Fage 75015 PARIS France", "nom_site": "Parc Andre Citroen", "adresse": "5, Rue De La Montagne De La Fage", "geo_coordinates": [48.840069, 2.27742], "cp": "75015"}, "geometry": {"type": "Point", "coordinates": [2.27742, 48.840069]}},{"datasetid": "liste_des_sites_des_hotspots_paris_wifi", "recordid": "liste_sites_hotpsots_paris_wifi_geocoded/194", "fields": {"ville": "PARIS", "adresse_complete": "27, Rue Piat 75020 PARIS France", "nom_site": "Parc de Belleville", "adresse": "27, Rue Piat", "geo_coordinates": [48.87191, 2.38504], "cp": "75020"}, "geometry": {"type": "Point", "coordinates": [2.38504, 48.87191]}},{"datasetid": "liste_des_sites_des_hotspots_paris_wifi", "recordid": "liste_sites_hotpsots_paris_wifi_geocoded/199", "fields": {"ville": "PARIS", "adresse_complete": "160, Avenue De Choisy 75013 PARIS France", "nom_site": "Parc de Choisy", "adresse": "160, Avenue De Choisy", "geo_coordinates": [48.828659, 2.35795], "cp": "75013"}, "geometry": {"type": "Point", "coordinates": [2.35795, 48.828659]}},{"datasetid": "liste_des_sites_des_hotspots_paris_wifi", "recordid": "liste_sites_hotpsots_paris_wifi_geocoded/202", "fields": {"ville": "PARIS", "adresse_complete": "5, Rue Alphonse Aulard 75019 PARIS France", "nom_site": "Parc de La Butte Du Chapeau Rouge", "adresse": "5, Rue Alphonse Aulard", "geo_coordinates": [48.88031, 2.39908], "cp": "75019"}, "geometry": {"type": "Point", "coordinates": [2.39908, 48.88031]}},{"datasetid": "liste_des_sites_des_hotspots_paris_wifi", "recordid": "liste_sites_hotpsots_paris_wifi_geocoded/207", "fields": {"ville": "PARIS", "adresse_complete": "74, Rue Botzaris 75019 PARIS France", "nom_site": "Parc des Buttes Chaumont", "adresse": "74, Rue Botzaris", "geo_coordinates": [48.879532, 2.38847], "cp": "75019"}, "geometry": {"type": "Point", "coordinates": [2.38847, 48.879532]}},{"datasetid": "liste_des_sites_des_hotspots_paris_wifi", "recordid": "liste_sites_hotpsots_paris_wifi_geocoded/214", "fields": {"ville": "PARIS", "adresse_complete": "2, Rue Gazan 75014 PARIS France", "nom_site": "Parc Montsouris", "adresse": "2, Rue Gazan", "geo_coordinates": [48.82452, 2.33994], "cp": "75014"}, "geometry": {"type": "Point", "coordinates": [2.33994, 48.82452]}},{"datasetid": "liste_des_sites_des_hotspots_paris_wifi", "recordid": "liste_sites_hotpsots_paris_wifi_geocoded/219", "fields": {"ville": "PARIS", "adresse_complete": "Porte De La Gare 75013 PARIS France", "nom_site": "Solarium Josephine Baker", "adresse": "Porte De La Gare", "geo_coordinates": [48.832458, 2.37965], "cp": "75013"}, "geometry": {"type": "Point", "coordinates": [2.37965, 48.832458]}},{"datasetid": "liste_des_sites_des_hotspots_paris_wifi", "recordid": "liste_sites_hotpsots_paris_wifi_geocoded/221", "fields": {"ville": "PARIS", "adresse_complete": "107, Rue Du Faubourg Saint Denis 75010 PARIS France", "nom_site": "Square Alban Satragne", "adresse": "107, Rue Du Faubourg Saint Denis", "geo_coordinates": [48.87513, 2.35585], "cp": "75010"}, "geometry": {"type": "Point", "coordinates": [2.35585, 48.87513]}},{"datasetid": "liste_des_sites_des_hotspots_paris_wifi", "recordid": "liste_sites_hotpsots_paris_wifi_geocoded/226", "fields": {"ville": "PARIS", "adresse_complete": "128, Rue De Bagnolet 75020 PARIS France", "nom_site": "Square Antoine Blondin", "adresse": "128, Rue De Bagnolet", "geo_coordinates": [48.86079, 2.40479], "cp": "75020"}, "geometry": {"type": "Point", "coordinates": [2.40479, 48.86079]}},{"datasetid": "liste_des_sites_des_hotspots_paris_wifi", "recordid": "liste_sites_hotpsots_paris_wifi_geocoded/233", "fields": {"ville": "PARIS", "adresse_complete": "Place D'Anvers 75009 PARIS France", "nom_site": "Square D'Anvers", "adresse": "Place D'Anvers", "geo_coordinates": [48.881874, 2.344889], "cp": "75009"}, "geometry": {"type": "Point", "coordinates": [2.344889, 48.881874]}},{"datasetid": "liste_des_sites_des_hotspots_paris_wifi", "recordid": "liste_sites_hotpsots_paris_wifi_geocoded/238", "fields": {"ville": "PARIS", "adresse_complete": "30, Quai Des Celestins 75004 PARIS France", "nom_site": "Square De L'Ave Maria", "adresse": "30, Quai Des Celestins", "geo_coordinates": [48.85265, 2.35964], "cp": "75004"}, "geometry": {"type": "Point", "coordinates": [2.35964, 48.85265]}},{"datasetid": "liste_des_sites_des_hotspots_paris_wifi", "recordid": "liste_sites_hotpsots_paris_wifi_geocoded/240", "fields": {"ville": "PARIS", "adresse_complete": "Place Charles Fillion 75017 PARIS France", "nom_site": "Square Des Batignolles", "adresse": "Place Charles Fillion", "geo_coordinates": [48.887608, 2.317353], "cp": "75017"}, "geometry": {"type": "Point", "coordinates": [2.317353, 48.887608]}},{"datasetid": "liste_des_sites_des_hotspots_paris_wifi", "recordid": "liste_sites_hotpsots_paris_wifi_geocoded/245", "fields": {"ville": "PARIS", "adresse_complete": "8, Avenue Du G\u00e9n\u00e9ral Sarrail 75016 PARIS France", "nom_site": "Square Du Tchad", "adresse": "8, Avenue Du G\u00e9n\u00e9ral Sarrail", "geo_coordinates": [48.84652, 2.25635], "cp": "75016"}, "geometry": {"type": "Point", "coordinates": [2.25635, 48.84652]}},{"datasetid": "liste_des_sites_des_hotspots_paris_wifi", "recordid": "liste_sites_hotpsots_paris_wifi_geocoded/252", "fields": {"ville": "PARIS", "adresse_complete": "20, Rue De La Fontaine A Mulard 75013 PARIS France", "nom_site": "Square Fontaine A Mulard", "adresse": "20, Rue De La Fontaine A Mulard", "geo_coordinates": [48.82301, 2.34889], "cp": "75013"}, "geometry": {"type": "Point", "coordinates": [2.34889, 48.82301]}},{"datasetid": "liste_des_sites_des_hotspots_paris_wifi", "recordid": "liste_sites_hotpsots_paris_wifi_geocoded/257", "fields": {"ville": "PARIS", "adresse_complete": "69, Boulevard Arago 75013 PARIS France", "nom_site": "Square Henri Cadiou", "adresse": "69, Boulevard Arago", "geo_coordinates": [48.83483, 2.342073], "cp": "75013"}, "geometry": {"type": "Point", "coordinates": [2.342073, 48.83483]}},{"datasetid": "liste_des_sites_des_hotspots_paris_wifi", "recordid": "liste_sites_hotpsots_paris_wifi_geocoded/264", "fields": {"ville": "PARIS", "adresse_complete": "Angle Rue Juliette Dodu 75010 PARIS France", "nom_site": "Square Juliette Dodu", "adresse": "Angle Rue Juliette Dodu", "geo_coordinates": [48.874718, 2.369595], "cp": "75010"}, "geometry": {"type": "Point", "coordinates": [2.369595, 48.874718]}},{"datasetid": "liste_des_sites_des_hotspots_paris_wifi", "recordid": "liste_sites_hotpsots_paris_wifi_geocoded/269", "fields": {"ville": "PARIS", "adresse_complete": "30 Place Des Vosges 75004 PARIS France", "nom_site": "Square Louis Xiii", "adresse": "30 Place Des Vosges", "geo_coordinates": [48.856159, 2.36595], "cp": "75004"}, "geometry": {"type": "Point", "coordinates": [2.36595, 48.856159]}},{"datasetid": "liste_des_sites_des_hotspots_paris_wifi", "recordid": "liste_sites_hotpsots_paris_wifi_geocoded/271", "fields": {"ville": "PARIS", "adresse_complete": "2, Rue Pierre Reverdy 75019 PARIS France", "nom_site": "Square Marcel Mouloudji", "adresse": "2, Rue Pierre Reverdy", "geo_coordinates": [48.8853, 2.37628], "cp": "75019"}, "geometry": {"type": "Point", "coordinates": [2.37628, 48.8853]}},{"datasetid": "liste_des_sites_des_hotspots_paris_wifi", "recordid": "liste_sites_hotpsots_paris_wifi_geocoded/276", "fields": {"ville": "PARIS", "adresse_complete": "19 Bis, Rue De L'Orillon 75011 PARIS France", "nom_site": "Square Orillon Jules Vernes", "adresse": "19 Bis, Rue De L'Orillon", "geo_coordinates": [48.869862, 2.37514], "cp": "75011"}, "geometry": {"type": "Point", "coordinates": [2.37514, 48.869862]}},{"datasetid": "liste_des_sites_des_hotspots_paris_wifi", "recordid": "liste_sites_hotpsots_paris_wifi_geocoded/283", "fields": {"ville": "PARIS", "adresse_complete": "43 Rue Blomet 75015 PARIS France", "nom_site": "Square Blomet", "adresse": "43 Rue Blomet", "geo_coordinates": [48.8425, 2.305323], "cp": "75015"}, "geometry": {"type": "Point", "coordinates": [2.305323, 48.8425]}},{"datasetid": "liste_des_sites_des_hotspots_paris_wifi", "recordid": "liste_sites_hotpsots_paris_wifi_geocoded/288", "fields": {"ville": "PARIS", "adresse_complete": "9, Avenue Gambetta 75020 PARIS France", "nom_site": "Square Samuel Champlain", "adresse": "9, Avenue Gambetta", "geo_coordinates": [48.86343, 2.38962], "cp": "75020"}, "geometry": {"type": "Point", "coordinates": [2.38962, 48.86343]}},{"datasetid": "liste_des_sites_des_hotspots_paris_wifi", "recordid": "liste_sites_hotpsots_paris_wifi_geocoded/290", "fields": {"ville": "PARIS", "adresse_complete": "8, Rue Scipion 75005 PARIS France", "nom_site": "Square Scipion", "adresse": "8, Rue Scipion", "geo_coordinates": [48.838371, 2.35368], "cp": "75005"}, "geometry": {"type": "Point", "coordinates": [2.35368, 48.838371]}},{"datasetid": "liste_des_sites_des_hotspots_paris_wifi", "recordid": "liste_sites_hotpsots_paris_wifi_geocoded/295", "fields": {"ville": "PARIS", "adresse_complete": "Place Violet 75015 PARIS France", "nom_site": "Square Violet", "adresse": "Place Violet", "geo_coordinates": [48.844677, 2.290432], "cp": "75015"}, "geometry": {"type": "Point", "coordinates": [2.290432, 48.844677]}},{"datasetid": "liste_des_sites_des_hotspots_paris_wifi", "recordid": "liste_sites_hotpsots_paris_wifi_geocoded/303", "fields": {"ville": "PARIS", "adresse_complete": "115 RUE DE BAGNOLET 75020 PARIS France", "nom_site": "MEDIATHEQUE MARGUERITE DURAS", "adresse": "115 RUE DE BAGNOLET", "geo_coordinates": [48.859772, 2.40325], "cp": "75020"}, "geometry": {"type": "Point", "coordinates": [2.40325, 48.859772]}},{"datasetid": "liste_des_sites_des_hotspots_paris_wifi", "recordid": "liste_sites_hotpsots_paris_wifi_geocoded/308", "fields": {"ville": "PARIS", "adresse_complete": "3 RUE JEAN ANTOINE DE BAIF 75013 PARIS France", "nom_site": "MAISON DES INITIATIVES", "adresse": "3 RUE JEAN ANTOINE DE BAIF", "geo_coordinates": [48.827862, 2.38436], "cp": "75013"}, "geometry": {"type": "Point", "coordinates": [2.38436, 48.827862]}},{"datasetid": "liste_des_sites_des_hotspots_paris_wifi", "recordid": "liste_sites_hotpsots_paris_wifi_geocoded/310", "fields": {"ville": "PARIS", "adresse_complete": "5 bis rue du Louvre 75001 PARIS France", "nom_site": "Maison des Associations du 1er -", "adresse": "5 bis rue du Louvre", "geo_coordinates": [48.861839, 2.34131], "cp": "75001"}, "geometry": {"type": "Point", "coordinates": [2.34131, 48.861839]}},{"datasetid": "liste_des_sites_des_hotspots_paris_wifi", "recordid": "liste_sites_hotpsots_paris_wifi_geocoded/1", "fields": {"ville": "PARIS", "adresse_complete": "116, Quai de Jemmapes 75010 PARIS France", "nom_site": "Centre d'animation espace Jemmapes", "adresse": "116, Quai de Jemmapes", "geo_coordinates": [48.87487, 2.36371], "cp": "75010"}, "geometry": {"type": "Point", "coordinates": [2.36371, 48.87487]}},{"datasetid": "liste_des_sites_des_hotspots_paris_wifi", "recordid": "liste_sites_hotpsots_paris_wifi_geocoded/6", "fields": {"ville": "PARIS", "adresse_complete": "4, Place De L'Hotel De Ville 75004 PARIS France", "nom_site": "Hotel de Ville (sous-sol et rdc)", "adresse": "4, Place De L'Hotel De Ville", "geo_coordinates": [48.85694, 2.35212], "cp": "75004"}, "geometry": {"type": "Point", "coordinates": [2.35212, 48.85694]}},{"datasetid": "liste_des_sites_des_hotspots_paris_wifi", "recordid": "liste_sites_hotpsots_paris_wifi_geocoded/13", "fields": {"ville": "PARIS", "adresse_complete": "4, Place De L'Hotel De Ville 75004 PARIS France", "nom_site": "Parvis De L'Hotel De Ville", "adresse": "4, Place De L'Hotel De Ville", "geo_coordinates": [48.85694, 2.35212], "cp": "75004"}, "geometry": {"type": "Point", "coordinates": [2.35212, 48.85694]}},{"datasetid": "liste_des_sites_des_hotspots_paris_wifi", "recordid": "liste_sites_hotpsots_paris_wifi_geocoded/18", "fields": {"ville": "PARIS", "adresse_complete": "18, Boulevard Serurier 75019 PARIS France", "nom_site": "Archives de Paris", "adresse": "18, Boulevard Serurier", "geo_coordinates": [48.87785, 2.40572], "cp": "75019"}, "geometry": {"type": "Point", "coordinates": [2.40572, 48.87785]}},{"datasetid": "liste_des_sites_des_hotspots_paris_wifi", "recordid": "liste_sites_hotpsots_paris_wifi_geocoded/20", "fields": {"ville": "PARIS", "adresse_complete": "5, Rue De Lobau 75004 PARIS France", "nom_site": "Biblioth\u00e8que Administrative De La Ville De Paris", "adresse": "5, Rue De Lobau", "geo_coordinates": [48.856701, 2.35359], "cp": "75004"}, "geometry": {"type": "Point", "coordinates": [2.35359, 48.856701]}},{"datasetid": "liste_des_sites_des_hotspots_paris_wifi", "recordid": "liste_sites_hotpsots_paris_wifi_geocoded/25", "fields": {"ville": "PARIS", "adresse_complete": "141, Avenue De Flandre 75019 PARIS France", "nom_site": "Biblioth\u00e8que Benjamin Rabier", "adresse": "141, Avenue De Flandre", "geo_coordinates": [48.892681, 2.37923], "cp": "75019"}, "geometry": {"type": "Point", "coordinates": [2.37923, 48.892681]}},{"datasetid": "liste_des_sites_des_hotspots_paris_wifi", "recordid": "liste_sites_hotpsots_paris_wifi_geocoded/32", "fields": {"ville": "PARIS", "adresse_complete": "17 Ter, Avenue Beaucour 75008 PARIS France", "nom_site": "Biblioth\u00e8que Courcelles", "adresse": "17 Ter, Avenue Beaucour", "geo_coordinates": [48.877708, 2.30313], "cp": "75008"}, "geometry": {"type": "Point", "coordinates": [2.30313, 48.877708]}},{"datasetid": "liste_des_sites_des_hotspots_paris_wifi", "recordid": "liste_sites_hotpsots_paris_wifi_geocoded/37", "fields": {"ville": "PARIS", "adresse_complete": "11, Rue Drouot 75009 PARIS France", "nom_site": "Biblioth\u00e8que Drouot", "adresse": "11, Rue Drouot", "geo_coordinates": [48.873371, 2.34053], "cp": "75009"}, "geometry": {"type": "Point", "coordinates": [2.34053, 48.873371]}},{"datasetid": "liste_des_sites_des_hotspots_paris_wifi", "recordid": "liste_sites_hotpsots_paris_wifi_geocoded/44", "fields": {"ville": "PARIS", "adresse_complete": "81, Boulevard De La Villette 75010 PARIS France", "nom_site": "Biblioth\u00e8que Francois Villon", "adresse": "81, Boulevard De La Villette", "geo_coordinates": [48.877258, 2.37089], "cp": "75010"}, "geometry": {"type": "Point", "coordinates": [2.37089, 48.877258]}},{"datasetid": "liste_des_sites_des_hotspots_paris_wifi", "recordid": "liste_sites_hotpsots_paris_wifi_geocoded/49", "fields": {"ville": "PARIS", "adresse_complete": "2, Rue Du Departement 75019 PARIS France", "nom_site": "Biblioth\u00e8que Herge", "adresse": "2, Rue Du Departement", "geo_coordinates": [48.88496, 2.36717], "cp": "75019"}, "geometry": {"type": "Point", "coordinates": [2.36717, 48.88496]}},{"datasetid": "liste_des_sites_des_hotspots_paris_wifi", "recordid": "liste_sites_hotpsots_paris_wifi_geocoded/51", "fields": {"ville": "PARIS", "adresse_complete": "24, Rue Pavee 75004 PARIS France", "nom_site": "Biblioth\u00e8que Historique De La Ville De Paris", "adresse": "24, Rue Pavee", "geo_coordinates": [48.85712, 2.36167], "cp": "75004"}, "geometry": {"type": "Point", "coordinates": [2.36167, 48.85712]}},{"datasetid": "liste_des_sites_des_hotspots_paris_wifi", "recordid": "liste_sites_hotpsots_paris_wifi_geocoded/56", "fields": {"ville": "PARIS", "adresse_complete": "4, Place Du Louvre 75001 PARIS France", "nom_site": "Biblioth\u00e8que Louvre", "adresse": "4, Place Du Louvre", "geo_coordinates": [48.860081, 2.34105], "cp": "75001"}, "geometry": {"type": "Point", "coordinates": [2.34105, 48.860081]}},{"datasetid": "liste_des_sites_des_hotspots_paris_wifi", "recordid": "liste_sites_hotpsots_paris_wifi_geocoded/63", "fields": {"ville": "PARIS", "adresse_complete": "70, Rue De Picpus 75012 PARIS France", "nom_site": "Biblioth\u00e8que Picpus", "adresse": "70, Rue De Picpus", "geo_coordinates": [48.84259, 2.39758], "cp": "75012"}, "geometry": {"type": "Point", "coordinates": [2.39758, 48.84259]}},{"datasetid": "liste_des_sites_des_hotspots_paris_wifi", "recordid": "liste_sites_hotpsots_paris_wifi_geocoded/68", "fields": {"ville": "PARIS", "adresse_complete": "11, Rue Nicolas Chuquet 75017 PARIS France", "nom_site": "Biblioth\u00e8que Edmond Rostand", "adresse": "11, Rue Nicolas Chuquet", "geo_coordinates": [48.888451, 2.30301], "cp": "75017"}, "geometry": {"type": "Point", "coordinates": [2.30301, 48.888451]}},{"datasetid": "liste_des_sites_des_hotspots_paris_wifi", "recordid": "liste_sites_hotpsots_paris_wifi_geocoded/70", "fields": {"ville": "PARIS", "adresse_complete": "12, Rue Du Telegraphe 75020 PARIS France", "nom_site": "Biblioth\u00e8que Saint Fargeau", "adresse": "12, Rue Du Telegraphe", "geo_coordinates": [48.871948, 2.39975], "cp": "75020"}, "geometry": {"type": "Point", "coordinates": [2.39975, 48.871948]}},{"datasetid": "liste_des_sites_des_hotspots_paris_wifi", "recordid": "liste_sites_hotpsots_paris_wifi_geocoded/75", "fields": {"ville": "PARIS", "adresse_complete": "80, Avenue Du Maine 75014 PARIS France", "nom_site": "Biblioth\u00e8que Vandamme", "adresse": "80, Avenue Du Maine", "geo_coordinates": [48.838612, 2.32229], "cp": "75014"}, "geometry": {"type": "Point", "coordinates": [2.32229, 48.838612]}},{"datasetid": "liste_des_sites_des_hotspots_paris_wifi", "recordid": "liste_sites_hotpsots_paris_wifi_geocoded/82", "fields": {"ville": "PARIS", "adresse_complete": "88, Rue La Jonquiere 75017 PARIS France", "nom_site": "Centre Culturel La Jonquiere", "adresse": "88, Rue La Jonquiere", "geo_coordinates": [48.89468, 2.31904], "cp": "75017"}, "geometry": {"type": "Point", "coordinates": [2.31904, 48.89468]}},{"datasetid": "liste_des_sites_des_hotspots_paris_wifi", "recordid": "liste_sites_hotpsots_paris_wifi_geocoded/87", "fields": {"ville": "PARIS", "adresse_complete": "15, Rue Mathis 75019 PARIS France", "nom_site": "Centre d'Animation Jean Mathis", "adresse": "15, Rue Mathis", "geo_coordinates": [48.890869, 2.37508], "cp": "75019"}, "geometry": {"type": "Point", "coordinates": [2.37508, 48.890869]}},{"datasetid": "liste_des_sites_des_hotspots_paris_wifi", "recordid": "liste_sites_hotpsots_paris_wifi_geocoded/94", "fields": {"ville": "PARIS", "adresse_complete": "2, Rue Louis Armand 75015 PARIS France", "nom_site": "Centre Sportif Suzanne Lenglen", "adresse": "2, Rue Louis Armand", "geo_coordinates": [48.833141, 2.27663], "cp": "75015"}, "geometry": {"type": "Point", "coordinates": [2.27663, 48.833141]}},{"datasetid": "liste_des_sites_des_hotspots_paris_wifi", "recordid": "liste_sites_hotpsots_paris_wifi_geocoded/99", "fields": {"ville": "PARIS", "adresse_complete": "8, Porte Saint Eustache 75001 PARIS France", "nom_site": "Discoth\u00e8que des Halles", "adresse": "8, Porte Saint Eustache", "geo_coordinates": [48.862759, 2.345275], "cp": "75001"}, "geometry": {"type": "Point", "coordinates": [2.345275, 48.862759]}},{"datasetid": "liste_des_sites_des_hotspots_paris_wifi", "recordid": "liste_sites_hotpsots_paris_wifi_geocoded/100", "fields": {"ville": "PARIS", "adresse_complete": "48, Rue Veille Du Temple 75004 PARIS France", "nom_site": "Espace des Blancs Manteaux", "adresse": "48, Rue Veille Du Temple", "geo_coordinates": [48.858292, 2.35834], "cp": "75004"}, "geometry": {"type": "Point", "coordinates": [2.35834, 48.858292]}},{"datasetid": "liste_des_sites_des_hotspots_paris_wifi", "recordid": "liste_sites_hotpsots_paris_wifi_geocoded/105", "fields": {"ville": "PARIS", "adresse_complete": "20, Boulevard De La Bastille 75012 PARIS France", "nom_site": "Jardin Arsenal", "adresse": "20, Boulevard De La Bastille", "geo_coordinates": [48.848389, 2.36782], "cp": "75012"}, "geometry": {"type": "Point", "coordinates": [2.36782, 48.848389]}},{"datasetid": "liste_des_sites_des_hotspots_paris_wifi", "recordid": "liste_sites_hotpsots_paris_wifi_geocoded/112", "fields": {"ville": "PARIS", "adresse_complete": "Rue D Aubervillier 75018 PARIS France", "nom_site": "Jardin D Eole 1", "adresse": "Rue D Aubervillier", "geo_coordinates": [48.89164, 2.368965], "cp": "75018"}, "geometry": {"type": "Point", "coordinates": [2.368965, 48.89164]}},{"datasetid": "liste_des_sites_des_hotspots_paris_wifi", "recordid": "liste_sites_hotpsots_paris_wifi_geocoded/117", "fields": {"ville": "PARIS", "adresse_complete": "Chaussee De La Muette 75016 PARIS France", "nom_site": "Jardin Du Ranelagh", "adresse": "Chaussee De La Muette", "geo_coordinates": [48.858345, 2.270875], "cp": "75016"}, "geometry": {"type": "Point", "coordinates": [2.270875, 48.858345]}},{"datasetid": "liste_des_sites_des_hotspots_paris_wifi", "recordid": "liste_sites_hotpsots_paris_wifi_geocoded/124", "fields": {"ville": "PARIS", "adresse_complete": "24, Rue De La Forge Royale 75011 PARIS France", "nom_site": "Jardin Louis Majorelle", "adresse": "24, Rue De La Forge Royale", "geo_coordinates": [48.851952, 2.38078], "cp": "75011"}, "geometry": {"type": "Point", "coordinates": [2.38078, 48.851952]}},{"datasetid": "liste_des_sites_des_hotspots_paris_wifi", "recordid": "liste_sites_hotpsots_paris_wifi_geocoded/129", "fields": {"ville": "PARIS", "adresse_complete": "16-26, Rue De Chatillon 75014 PARIS France", "nom_site": "Jardin Porte De Chatillon", "adresse": "16-26, Rue De Chatillon", "geo_coordinates": [48.82753, 2.32335], "cp": "75014"}, "geometry": {"type": "Point", "coordinates": [2.32335, 48.82753]}},{"datasetid": "liste_des_sites_des_hotspots_paris_wifi", "recordid": "liste_sites_hotpsots_paris_wifi_geocoded/131", "fields": {"ville": "PARIS", "adresse_complete": "34 Rue Du Rendez-Vous 75012 PARIS France", "nom_site": "Jardin Rue Debergue", "adresse": "34 Rue Du Rendez-Vous", "geo_coordinates": [48.84568, 2.40333], "cp": "75012"}, "geometry": {"type": "Point", "coordinates": [2.40333, 48.84568]}},{"datasetid": "liste_des_sites_des_hotspots_paris_wifi", "recordid": "liste_sites_hotpsots_paris_wifi_geocoded/136", "fields": {"ville": "PARIS", "adresse_complete": "Place Leon Blum 75011 PARIS France", "nom_site": "Mairie du 11E Arrondissement", "adresse": "Place Leon Blum", "geo_coordinates": [48.858356, 2.379501], "cp": "75011"}, "geometry": {"type": "Point", "coordinates": [2.379501, 48.858356]}},{"datasetid": "liste_des_sites_des_hotspots_paris_wifi", "recordid": "liste_sites_hotpsots_paris_wifi_geocoded/143", "fields": {"ville": "PARIS", "adresse_complete": "1, Place Jules Joffrin 75018 PARIS France", "nom_site": "Mairie du 18E Arrondissement", "adresse": "1, Place Jules Joffrin", "geo_coordinates": [48.892448, 2.34473], "cp": "75018"}, "geometry": {"type": "Point", "coordinates": [2.34473, 48.892448]}},{"datasetid": "liste_des_sites_des_hotspots_paris_wifi", "recordid": "liste_sites_hotpsots_paris_wifi_geocoded/148", "fields": {"ville": "PARIS", "adresse_complete": "2, Rue Eugene Spuller 75003 PARIS France", "nom_site": "Mairie du 3E Arrondissement", "adresse": "2, Rue Eugene Spuller", "geo_coordinates": [48.864029, 2.36144], "cp": "75003"}, "geometry": {"type": "Point", "coordinates": [2.36144, 48.864029]}},{"datasetid": "liste_des_sites_des_hotspots_paris_wifi", "recordid": "liste_sites_hotpsots_paris_wifi_geocoded/150", "fields": {"ville": "PARIS", "adresse_complete": "21, Place Du Pantheon 75005 PARIS France", "nom_site": "Mairie du 5E Arrondissement", "adresse": "21, Place Du Pantheon", "geo_coordinates": [48.84623, 2.344676], "cp": "75005"}, "geometry": {"type": "Point", "coordinates": [2.344676, 48.84623]}},{"datasetid": "liste_des_sites_des_hotspots_paris_wifi", "recordid": "liste_sites_hotpsots_paris_wifi_geocoded/155", "fields": {"ville": "PARIS", "adresse_complete": "47, Rue Raynouard 75016 PARIS France", "nom_site": "Maison de Balzac", "adresse": "47, Rue Raynouard", "geo_coordinates": [48.855419, 2.2807], "cp": "75016"}, "geometry": {"type": "Point", "coordinates": [2.2807, 48.855419]}},{"datasetid": "liste_des_sites_des_hotspots_paris_wifi", "recordid": "liste_sites_hotpsots_paris_wifi_geocoded/162", "fields": {"ville": "PARIS", "adresse_complete": "8, Rue Du General Renault 75011 PARIS France", "nom_site": "Maison des Associations Du 11eme", "adresse": "8, Rue Du General Renault", "geo_coordinates": [48.861401, 2.37835], "cp": "75011"}, "geometry": {"type": "Point", "coordinates": [2.37835, 48.861401]}},{"datasetid": "liste_des_sites_des_hotspots_paris_wifi", "recordid": "liste_sites_hotpsots_paris_wifi_geocoded/167", "fields": {"ville": "PARIS", "adresse_complete": "26, Rue De La Saida 75015 PARIS France", "nom_site": "Maison des Associations Du 15eme", "adresse": "26, Rue De La Saida", "geo_coordinates": [48.831711, 2.29621], "cp": "75015"}, "geometry": {"type": "Point", "coordinates": [2.29621, 48.831711]}},{"datasetid": "liste_des_sites_des_hotspots_paris_wifi", "recordid": "liste_sites_hotpsots_paris_wifi_geocoded/174", "fields": {"ville": "PARIS", "adresse_complete": "60, Rue Saint Andre Des Arts 75006 PARIS France", "nom_site": "Maison des Associations Du 06eme", "adresse": "60, Rue Saint Andre Des Arts", "geo_coordinates": [48.853496, 2.339608], "cp": "75006"}, "geometry": {"type": "Point", "coordinates": [2.339608, 48.853496]}},{"datasetid": "liste_des_sites_des_hotspots_paris_wifi", "recordid": "liste_sites_hotpsots_paris_wifi_geocoded/179", "fields": {"ville": "PARIS", "adresse_complete": "31, Rue De Pixerecourt 75020 PARIS France", "nom_site": "Maison Du Developpement Economique Du 20eme", "adresse": "31, Rue De Pixerecourt", "geo_coordinates": [48.871929, 2.39583], "cp": "75020"}, "geometry": {"type": "Point", "coordinates": [2.39583, 48.871929]}},{"datasetid": "liste_des_sites_des_hotspots_paris_wifi", "recordid": "liste_sites_hotpsots_paris_wifi_geocoded/181", "fields": {"ville": "PARIS", "adresse_complete": "16, Rue Antoine Bourdelle 75015 PARIS France", "nom_site": "Musee Antoine Bourdelle", "adresse": "16, Rue Antoine Bourdelle", "geo_coordinates": [48.842949, 2.31886], "cp": "75015"}, "geometry": {"type": "Point", "coordinates": [2.31886, 48.842949]}},{"datasetid": "liste_des_sites_des_hotspots_paris_wifi", "recordid": "liste_sites_hotpsots_paris_wifi_geocoded/186", "fields": {"ville": "PARIS", "adresse_complete": "23, Allee De La Deuxieme Division Blindee 75015 PARIS France", "nom_site": "Musee Memorial Marechal Leclerc", "adresse": "23, Allee De La Deuxieme Division Blindee", "geo_coordinates": [48.840485, 2.32021], "cp": "75015"}, "geometry": {"type": "Point", "coordinates": [2.32021, 48.840485]}},{"datasetid": "liste_des_sites_des_hotspots_paris_wifi", "recordid": "liste_sites_hotpsots_paris_wifi_geocoded/193", "fields": {"ville": "PARIS", "adresse_complete": "45, Rue Des Couronnes 75020 PARIS France", "nom_site": "Parc de Belleville", "adresse": "45, Rue Des Couronnes", "geo_coordinates": [48.870258, 2.38482], "cp": "75020"}, "geometry": {"type": "Point", "coordinates": [2.38482, 48.870258]}},{"datasetid": "liste_des_sites_des_hotspots_paris_wifi", "recordid": "liste_sites_hotpsots_paris_wifi_geocoded/198", "fields": {"ville": "PARIS", "adresse_complete": "1, Cour Chamonard 75012 PARIS France", "nom_site": "Parc de Bercy (terrasse Bercy)", "adresse": "1, Cour Chamonard", "geo_coordinates": [48.835124, 2.41756], "cp": "75012"}, "geometry": {"type": "Point", "coordinates": [2.41756, 48.835124]}},{"datasetid": "liste_des_sites_des_hotspots_paris_wifi", "recordid": "liste_sites_hotpsots_paris_wifi_geocoded/201", "fields": {"ville": "PARIS", "adresse_complete": "5, Rue Alphonse Aulard 75019 PARIS France", "nom_site": "Parc de La Butte Du Chapeau Rouge", "adresse": "5, Rue Alphonse Aulard", "geo_coordinates": [48.88031, 2.39908], "cp": "75019"}, "geometry": {"type": "Point", "coordinates": [2.39908, 48.88031]}},{"datasetid": "liste_des_sites_des_hotspots_paris_wifi", "recordid": "liste_sites_hotpsots_paris_wifi_geocoded/206", "fields": {"ville": "PARIS", "adresse_complete": "3, Rue Botzaris 75019 PARIS France", "nom_site": "Parc des Buttes Chaumont (Fessard)", "adresse": "3, Rue Botzaris", "geo_coordinates": [48.878045, 2.381454], "cp": "75019"}, "geometry": {"type": "Point", "coordinates": [2.381454, 48.878045]}},{"datasetid": "liste_des_sites_des_hotspots_paris_wifi", "recordid": "liste_sites_hotpsots_paris_wifi_geocoded/213", "fields": {"ville": "PARIS", "adresse_complete": "2, Rue Gazan 75014 PARIS France", "nom_site": "Parc Montsouris", "adresse": "2, Rue Gazan", "geo_coordinates": [48.82452, 2.33994], "cp": "75014"}, "geometry": {"type": "Point", "coordinates": [2.33994, 48.82452]}},{"datasetid": "liste_des_sites_des_hotspots_paris_wifi", "recordid": "liste_sites_hotpsots_paris_wifi_geocoded/218", "fields": {"ville": "PARIS", "adresse_complete": "39, Rue Edouard Pailleron 75019 PARIS France", "nom_site": "Solarium Edouard Pailleron", "adresse": "39, Rue Edouard Pailleron", "geo_coordinates": [48.881302, 2.37939], "cp": "75019"}, "geometry": {"type": "Point", "coordinates": [2.37939, 48.881302]}},{"datasetid": "liste_des_sites_des_hotspots_paris_wifi", "recordid": "liste_sites_hotpsots_paris_wifi_geocoded/220", "fields": {"ville": "PARIS", "adresse_complete": "34, Boulevard Carnot 75012 PARIS France", "nom_site": "Solarium Roger Le Gall", "adresse": "34, Boulevard Carnot", "geo_coordinates": [48.84211, 2.41312], "cp": "75012"}, "geometry": {"type": "Point", "coordinates": [2.41312, 48.84211]}},{"datasetid": "liste_des_sites_des_hotspots_paris_wifi", "recordid": "liste_sites_hotpsots_paris_wifi_geocoded/225", "fields": {"ville": "PARIS", "adresse_complete": "17, Boulvard De Reims 75017 PARIS France", "nom_site": "Square Andre Ulmann", "adresse": "17, Boulvard De Reims", "geo_coordinates": [48.890202, 2.2989], "cp": "75017"}, "geometry": {"type": "Point", "coordinates": [2.2989, 48.890202]}},{"datasetid": "liste_des_sites_des_hotspots_paris_wifi", "recordid": "liste_sites_hotpsots_paris_wifi_geocoded/232", "fields": {"ville": "PARIS", "adresse_complete": "Rue Du Clos Feuquieres 75015 PARIS France", "nom_site": "Square Clos Feuquieres", "adresse": "Rue Du Clos Feuquieres", "geo_coordinates": [48.836876, 2.29171], "cp": "75015"}, "geometry": {"type": "Point", "coordinates": [2.29171, 48.836876]}},{"datasetid": "liste_des_sites_des_hotspots_paris_wifi", "recordid": "liste_sites_hotpsots_paris_wifi_geocoded/237", "fields": {"ville": "PARIS", "adresse_complete": "32, Rue De La Jonquiere 75017 PARIS France", "nom_site": "Square De La Villa Sainte-Croix", "adresse": "32, Rue De La Jonquiere", "geo_coordinates": [48.893539, 2.32431], "cp": "75017"}, "geometry": {"type": "Point", "coordinates": [2.32431, 48.893539]}},{"datasetid": "liste_des_sites_des_hotspots_paris_wifi", "recordid": "liste_sites_hotpsots_paris_wifi_geocoded/244", "fields": {"ville": "PARIS", "adresse_complete": "72, Rue Du Moulin Vert 75014 PARIS France", "nom_site": "Square Du Chanoine Viollet", "adresse": "72, Rue Du Moulin Vert", "geo_coordinates": [48.831139, 2.32025], "cp": "75014"}, "geometry": {"type": "Point", "coordinates": [2.32025, 48.831139]}},{"datasetid": "liste_des_sites_des_hotspots_paris_wifi", "recordid": "liste_sites_hotpsots_paris_wifi_geocoded/249", "fields": {"ville": "PARIS", "adresse_complete": "55, Avenue De Clichy 75017 PARIS France", "nom_site": "Square Ernest Chausson", "adresse": "55, Avenue De Clichy", "geo_coordinates": [48.887562, 2.32551], "cp": "75017"}, "geometry": {"type": "Point", "coordinates": [2.32551, 48.887562]}},{"datasetid": "liste_des_sites_des_hotspots_paris_wifi", "recordid": "liste_sites_hotpsots_paris_wifi_geocoded/251", "fields": {"ville": "PARIS", "adresse_complete": "Place Ferdinand Brunot 75014 PARIS France", "nom_site": "Square Ferdinand Brunot", "adresse": "Place Ferdinand Brunot", "geo_coordinates": [48.832909, 2.32645], "cp": "75014"}, "geometry": {"type": "Point", "coordinates": [2.32645, 48.832909]}},{"datasetid": "liste_des_sites_des_hotspots_paris_wifi", "recordid": "liste_sites_hotpsots_paris_wifi_geocoded/256", "fields": {"ville": "PARIS", "adresse_complete": "22, Rue Pierre Gourdault 75013 PARIS France", "nom_site": "Square Heloise Et Abelard", "adresse": "22, Rue Pierre Gourdault", "geo_coordinates": [48.83083, 2.37007], "cp": "75013"}, "geometry": {"type": "Point", "coordinates": [2.37007, 48.83083]}},{"datasetid": "liste_des_sites_des_hotspots_paris_wifi", "recordid": "liste_sites_hotpsots_paris_wifi_geocoded/263", "fields": {"ville": "PARIS", "adresse_complete": "Rue Julia Bartet 75014 PARIS France", "nom_site": "Square Julia Bartet", "adresse": "Rue Julia Bartet", "geo_coordinates": [48.826363, 2.303192], "cp": "75014"}, "geometry": {"type": "Point", "coordinates": [2.303192, 48.826363]}},{"datasetid": "liste_des_sites_des_hotspots_paris_wifi", "recordid": "liste_sites_hotpsots_paris_wifi_geocoded/268", "fields": {"ville": "PARIS", "adresse_complete": "13-13Bis, Rue Payenne 75003 PARIS France", "nom_site": "Square Leopold Achille", "adresse": "13-13Bis, Rue Payenne", "geo_coordinates": [48.858349, 2.36253], "cp": "75003"}, "geometry": {"type": "Point", "coordinates": [2.36253, 48.858349]}},{"datasetid": "liste_des_sites_des_hotspots_paris_wifi", "recordid": "liste_sites_hotpsots_paris_wifi_geocoded/270", "fields": {"ville": "PARIS", "adresse_complete": "Rue Pasquier 75008 PARIS France", "nom_site": "Square Louis Xvi", "adresse": "Rue Pasquier", "geo_coordinates": [48.87326, 2.323639], "cp": "75008"}, "geometry": {"type": "Point", "coordinates": [2.323639, 48.87326]}},{"datasetid": "liste_des_sites_des_hotspots_paris_wifi", "recordid": "liste_sites_hotpsots_paris_wifi_geocoded/275", "fields": {"ville": "PARIS", "adresse_complete": "Rue La Fayette 75009 PARIS France", "nom_site": "Square Montholon", "adresse": "Rue La Fayette", "geo_coordinates": [48.875153, 2.341068], "cp": "75009"}, "geometry": {"type": "Point", "coordinates": [2.341068, 48.875153]}},{"datasetid": "liste_des_sites_des_hotspots_paris_wifi", "recordid": "liste_sites_hotpsots_paris_wifi_geocoded/282", "fields": {"ville": "PARIS", "adresse_complete": "67, Boulevard Richard Lenoir 75011 PARIS France", "nom_site": "Promenade Richard Lenoir", "adresse": "67, Boulevard Richard Lenoir", "geo_coordinates": [48.860458, 2.37209], "cp": "75011"}, "geometry": {"type": "Point", "coordinates": [2.37209, 48.860458]}},{"datasetid": "liste_des_sites_des_hotspots_paris_wifi", "recordid": "liste_sites_hotpsots_paris_wifi_geocoded/287", "fields": {"ville": "PARIS", "adresse_complete": "32 Rue Censier 75005 PARIS France", "nom_site": "Square Saint Medard", "adresse": "32 Rue Censier", "geo_coordinates": [48.839653, 2.350873], "cp": "75005"}, "geometry": {"type": "Point", "coordinates": [2.350873, 48.839653]}},{"datasetid": "liste_des_sites_des_hotspots_paris_wifi", "recordid": "liste_sites_hotpsots_paris_wifi_geocoded/294", "fields": {"ville": "PARIS", "adresse_complete": "Rue Blanche 75009 PARIS France", "nom_site": "Square Trinite D'Estienne D'Orves", "adresse": "Rue Blanche", "geo_coordinates": [48.87991, 2.331357], "cp": "75009"}, "geometry": {"type": "Point", "coordinates": [2.331357, 48.87991]}},{"datasetid": "liste_des_sites_des_hotspots_paris_wifi", "recordid": "liste_sites_hotpsots_paris_wifi_geocoded/299", "fields": {"ville": "PARIS", "adresse_complete": "81 BLD MASSENA 75013 PARIS France", "nom_site": "HALLE GEORGES CARPENTIER", "adresse": "81 BLD MASSENA", "geo_coordinates": [48.820911, 2.3682], "cp": "75013"}, "geometry": {"type": "Point", "coordinates": [2.3682, 48.820911]}},{"datasetid": "liste_des_sites_des_hotspots_paris_wifi", "recordid": "liste_sites_hotpsots_paris_wifi_geocoded/302", "fields": {"ville": "PARIS", "adresse_complete": "21 AVENUE DE LA PORTE DE CHATILLON 75014 PARIS France", "nom_site": "INSTITUT DU JUDO", "adresse": "21 AVENUE DE LA PORTE DE CHATILLON", "geo_coordinates": [48.82336, 2.31648], "cp": "75014"}, "geometry": {"type": "Point", "coordinates": [2.31648, 48.82336]}},{"datasetid": "liste_des_sites_des_hotspots_paris_wifi", "recordid": "liste_sites_hotpsots_paris_wifi_geocoded/307", "fields": {"ville": "PARIS", "adresse_complete": "30-32 Avenue Porte de Montmartre 75018 PARIS France", "nom_site": "Biblioth\u00e8que Porte Montmartre", "adresse": "30-32 Avenue Porte de Montmartre", "geo_coordinates": [48.8992, 2.33635], "cp": "75018"}, "geometry": {"type": "Point", "coordinates": [2.33635, 48.8992]}},{"datasetid": "liste_des_sites_des_hotspots_paris_wifi", "recordid": "liste_sites_hotpsots_paris_wifi_geocoded/4", "fields": {"ville": "PARIS", "adresse_complete": "82, Rue Georges Laffont 75016 PARIS France", "nom_site": "Stade Coubertin", "adresse": "82, Rue Georges Laffont", "geo_coordinates": [48.857146, 2.26284], "cp": "75016"}, "geometry": {"type": "Point", "coordinates": [2.26284, 48.857146]}},{"datasetid": "liste_des_sites_des_hotspots_paris_wifi", "recordid": "liste_sites_hotpsots_paris_wifi_geocoded/9", "fields": {"ville": "PARIS", "adresse_complete": "4, Place De L'Hotel De Ville 75004 PARIS France", "nom_site": "Hotel de Ville (3eme etage)", "adresse": "4, Place De L'Hotel De Ville", "geo_coordinates": [48.85694, 2.35212], "cp": "75004"}, "geometry": {"type": "Point", "coordinates": [2.35212, 48.85694]}},{"datasetid": "liste_des_sites_des_hotspots_paris_wifi", "recordid": "liste_sites_hotpsots_paris_wifi_geocoded/11", "fields": {"ville": "PARIS", "adresse_complete": "9, Place De L'Hotel De Ville 75004 PARIS France", "nom_site": "Parvis De L'Hotel De Ville", "adresse": "9, Place De L'Hotel De Ville", "geo_coordinates": [48.857151, 2.3513], "cp": "75004"}, "geometry": {"type": "Point", "coordinates": [2.3513, 48.857151]}},{"datasetid": "liste_des_sites_des_hotspots_paris_wifi", "recordid": "liste_sites_hotpsots_paris_wifi_geocoded/16", "fields": {"ville": "PARIS", "adresse_complete": "94, Boulevard Davout 75020 PARIS France", "nom_site": "Antenne Jeune Davout", "adresse": "94, Boulevard Davout", "geo_coordinates": [48.856701, 2.41], "cp": "75020"}, "geometry": {"type": "Point", "coordinates": [2.41, 48.856701]}},{"datasetid": "liste_des_sites_des_hotspots_paris_wifi", "recordid": "liste_sites_hotpsots_paris_wifi_geocoded/23", "fields": {"ville": "PARIS", "adresse_complete": "18, Rue Des Batignolles 75017 PARIS France", "nom_site": "Biblioth\u00e8que Batignolles", "adresse": "18, Rue Des Batignolles", "geo_coordinates": [48.88438, 2.3218], "cp": "75017"}, "geometry": {"type": "Point", "coordinates": [2.3218, 48.88438]}},{"datasetid": "liste_des_sites_des_hotspots_paris_wifi", "recordid": "liste_sites_hotpsots_paris_wifi_geocoded/28", "fields": {"ville": "PARIS", "adresse_complete": "26, Rue Chaptal 75009 PARIS France", "nom_site": "Biblioth\u00e8que Chaptal", "adresse": "26, Rue Chaptal", "geo_coordinates": [48.88105, 2.33225], "cp": "75009"}, "geometry": {"type": "Point", "coordinates": [2.33225, 48.88105]}},{"datasetid": "liste_des_sites_des_hotspots_paris_wifi", "recordid": "liste_sites_hotpsots_paris_wifi_geocoded/30", "fields": {"ville": "PARIS", "adresse_complete": "72, Rue Du Faubourg Saint Martin 75010 PARIS France", "nom_site": "Biblioth\u00e8que Chateau D'Eau", "adresse": "72, Rue Du Faubourg Saint Martin", "geo_coordinates": [48.871818, 2.35722], "cp": "75010"}, "geometry": {"type": "Point", "coordinates": [2.35722, 48.871818]}},{"datasetid": "liste_des_sites_des_hotspots_paris_wifi", "recordid": "liste_sites_hotpsots_paris_wifi_geocoded/35", "fields": {"ville": "PARIS", "adresse_complete": "48, Rue Du Cardinal Lemoine 75005 PARIS France", "nom_site": "Biblioth\u00e8que Des Litteratures Policier", "adresse": "48, Rue Du Cardinal Lemoine", "geo_coordinates": [48.846458, 2.35144], "cp": "75005"}, "geometry": {"type": "Point", "coordinates": [2.35144, 48.846458]}},{"datasetid": "liste_des_sites_des_hotspots_paris_wifi", "recordid": "liste_sites_hotpsots_paris_wifi_geocoded/42", "fields": {"ville": "PARIS", "adresse_complete": "1, Rue Du Figuier 75004 PARIS France", "nom_site": "Biblioth\u00e8que Forney", "adresse": "1, Rue Du Figuier", "geo_coordinates": [48.85347, 2.3593], "cp": "75004"}, "geometry": {"type": "Point", "coordinates": [2.3593, 48.85347]}},{"datasetid": "liste_des_sites_des_hotspots_paris_wifi", "recordid": "liste_sites_hotpsots_paris_wifi_geocoded/47", "fields": {"ville": "PARIS", "adresse_complete": "2, Rue Fleury 75018 PARIS France", "nom_site": "Biblioth\u00e8que Goutte D'Or", "adresse": "2, Rue Fleury", "geo_coordinates": [48.884369, 2.35408], "cp": "75018"}, "geometry": {"type": "Point", "coordinates": [2.35408, 48.884369]}},{"datasetid": "liste_des_sites_des_hotspots_paris_wifi", "recordid": "liste_sites_hotpsots_paris_wifi_geocoded/54", "fields": {"ville": "PARIS", "adresse_complete": "77, Rue Nationale 75013 PARIS France", "nom_site": "Biblioth\u00e8que Jean Pierre Melville", "adresse": "77, Rue Nationale", "geo_coordinates": [48.826832, 2.36656], "cp": "75013"}, "geometry": {"type": "Point", "coordinates": [2.36656, 48.826832]}},{"datasetid": "liste_des_sites_des_hotspots_paris_wifi", "recordid": "liste_sites_hotpsots_paris_wifi_geocoded/59", "fields": {"ville": "PARIS", "adresse_complete": "74, Rue Mouffetard 75005 PARIS France", "nom_site": "Biblioth\u00e8que Mouffetard", "adresse": "74, Rue Mouffetard", "geo_coordinates": [48.842499, 2.34971], "cp": "75005"}, "geometry": {"type": "Point", "coordinates": [2.34971, 48.842499]}},{"datasetid": "liste_des_sites_des_hotspots_paris_wifi", "recordid": "liste_sites_hotpsots_paris_wifi_geocoded/61", "fields": {"ville": "PARIS", "adresse_complete": "20, Avenue Parmentier 75011 PARIS France", "nom_site": "Biblioth\u00e8que Parmentier", "adresse": "20, Avenue Parmentier", "geo_coordinates": [48.860039, 2.37882], "cp": "75011"}, "geometry": {"type": "Point", "coordinates": [2.37882, 48.860039]}},{"datasetid": "liste_des_sites_des_hotspots_paris_wifi", "recordid": "liste_sites_hotpsots_paris_wifi_geocoded/66", "fields": {"ville": "PARIS", "adresse_complete": "88 Ter, Boulevard De Port Royal 75005 PARIS France", "nom_site": "Biblioth\u00e8que Port Royal", "adresse": "88 Ter, Boulevard De Port Royal", "geo_coordinates": [48.839031, 2.33915], "cp": "75005"}, "geometry": {"type": "Point", "coordinates": [2.33915, 48.839031]}},{"datasetid": "liste_des_sites_des_hotspots_paris_wifi", "recordid": "liste_sites_hotpsots_paris_wifi_geocoded/73", "fields": {"ville": "PARIS", "adresse_complete": "2, Rue Du Commandant Schloesing 75016 PARIS France", "nom_site": "Biblioth\u00e8que Trocadero", "adresse": "2, Rue Du Commandant Schloesing", "geo_coordinates": [48.861839, 2.28524], "cp": "75016"}, "geometry": {"type": "Point", "coordinates": [2.28524, 48.861839]}},{"datasetid": "liste_des_sites_des_hotspots_paris_wifi", "recordid": "liste_sites_hotpsots_paris_wifi_geocoded/78", "fields": {"ville": "PARIS", "adresse_complete": "41, Rue D Alleray 75015 PARIS France", "nom_site": "Biblioth\u00e8que Yourcenar", "adresse": "41, Rue D Alleray", "geo_coordinates": [48.83672, 2.30365], "cp": "75015"}, "geometry": {"type": "Point", "coordinates": [2.30365, 48.83672]}},{"datasetid": "liste_des_sites_des_hotspots_paris_wifi", "recordid": "liste_sites_hotpsots_paris_wifi_geocoded/80", "fields": {"ville": "PARIS", "adresse_complete": "121, Rue De Mesnilmontant 75020 PARIS France", "nom_site": "Carre Baudoin", "adresse": "121, Rue De Mesnilmontant", "geo_coordinates": [48.869862, 2.39405], "cp": "75020"}, "geometry": {"type": "Point", "coordinates": [2.39405, 48.869862]}},{"datasetid": "liste_des_sites_des_hotspots_paris_wifi", "recordid": "liste_sites_hotpsots_paris_wifi_geocoded/85", "fields": {"ville": "PARIS", "adresse_complete": "133, Boulevard Serurier 75019 PARIS France", "nom_site": "Centre d'Animation Angele Mercier", "adresse": "133, Boulevard Serurier", "geo_coordinates": [48.88417, 2.39462], "cp": "75019"}, "geometry": {"type": "Point", "coordinates": [2.39462, 48.88417]}},{"datasetid": "liste_des_sites_des_hotspots_paris_wifi", "recordid": "liste_sites_hotpsots_paris_wifi_geocoded/92", "fields": {"ville": "PARIS", "adresse_complete": "6, Avenue Maurice Ravel 75012 PARIS France", "nom_site": "Centre d'Hebergement Maurice Ravel", "adresse": "6, Avenue Maurice Ravel", "geo_coordinates": [48.841808, 2.41161], "cp": "75012"}, "geometry": {"type": "Point", "coordinates": [2.41161, 48.841808]}},{"datasetid": "liste_des_sites_des_hotspots_paris_wifi", "recordid": "liste_sites_hotpsots_paris_wifi_geocoded/97", "fields": {"ville": "PARIS", "adresse_complete": "40, Rue Didot 75014 PARIS France", "nom_site": "Conseil de la Jeunesse", "adresse": "40, Rue Didot", "geo_coordinates": [48.831532, 2.31994], "cp": "75014"}, "geometry": {"type": "Point", "coordinates": [2.31994, 48.831532]}},{"datasetid": "liste_des_sites_des_hotspots_paris_wifi", "recordid": "liste_sites_hotpsots_paris_wifi_geocoded/103", "fields": {"ville": "PARIS", "adresse_complete": "1, Rue Paul 75007 PARIS France", "nom_site": "Esplanade Des Invalides", "adresse": "1, Rue Paul", "geo_coordinates": [48.85249, 2.36064], "cp": "75007"}, "geometry": {"type": "Point", "coordinates": [2.36064, 48.85249]}},{"datasetid": "liste_des_sites_des_hotspots_paris_wifi", "recordid": "liste_sites_hotpsots_paris_wifi_geocoded/108", "fields": {"ville": "PARIS", "adresse_complete": "33, Rue De Babylone 75007 PARIS France", "nom_site": "Jardin Catherine Laboure", "adresse": "33, Rue De Babylone", "geo_coordinates": [48.851681, 2.31987], "cp": "75007"}, "geometry": {"type": "Point", "coordinates": [2.31987, 48.851681]}},{"datasetid": "liste_des_sites_des_hotspots_paris_wifi", "recordid": "liste_sites_hotpsots_paris_wifi_geocoded/110", "fields": {"ville": "PARIS", "adresse_complete": "17 Rue Titon 75011 PARIS France", "nom_site": "Jardin Cite Prost", "adresse": "17 Rue Titon", "geo_coordinates": [48.851879, 2.38638], "cp": "75011"}, "geometry": {"type": "Point", "coordinates": [2.38638, 48.851879]}},{"datasetid": "liste_des_sites_des_hotspots_paris_wifi", "recordid": "liste_sites_hotpsots_paris_wifi_geocoded/115", "fields": {"ville": "PARIS", "adresse_complete": "1, Rue Albinoni 75012 PARIS France", "nom_site": "Jardin De Reuilly", "adresse": "1, Rue Albinoni", "geo_coordinates": [48.84288, 2.38845], "cp": "75012"}, "geometry": {"type": "Point", "coordinates": [2.38845, 48.84288]}},{"datasetid": "liste_des_sites_des_hotspots_paris_wifi", "recordid": "liste_sites_hotpsots_paris_wifi_geocoded/122", "fields": {"ville": "PARIS", "adresse_complete": "Rue Georges Balanchine 75013 PARIS France", "nom_site": "Jardin James Joyce", "adresse": "Rue Georges Balanchine", "geo_coordinates": [48.836151, 2.373251], "cp": "75013"}, "geometry": {"type": "Point", "coordinates": [2.373251, 48.836151]}},{"datasetid": "liste_des_sites_des_hotspots_paris_wifi", "recordid": "liste_sites_hotpsots_paris_wifi_geocoded/127", "fields": {"ville": "PARIS", "adresse_complete": "Rue Du Moulinet 75013 PARIS France", "nom_site": "Jardin De La Montgolfiere", "adresse": "Rue Du Moulinet", "geo_coordinates": [48.826756, 2.354218], "cp": "75013"}, "geometry": {"type": "Point", "coordinates": [2.354218, 48.826756]}},{"datasetid": "liste_des_sites_des_hotspots_paris_wifi", "recordid": "liste_sites_hotpsots_paris_wifi_geocoded/134", "fields": {"ville": "PARIS", "adresse_complete": "20, Rue Des Haies 75020 PARIS France", "nom_site": "Jardin Casque D'Or", "adresse": "20, Rue Des Haies", "geo_coordinates": [48.852741, 2.40048], "cp": "75020"}, "geometry": {"type": "Point", "coordinates": [2.40048, 48.852741]}},{"datasetid": "liste_des_sites_des_hotspots_paris_wifi", "recordid": "liste_sites_hotpsots_paris_wifi_geocoded/139", "fields": {"ville": "PARIS", "adresse_complete": "2, Place Ferdinand Brunot 75014 PARIS France", "nom_site": "Mairie du 14E Arrondissement", "adresse": "2, Place Ferdinand Brunot", "geo_coordinates": [48.832828, 2.32674], "cp": "75014"}, "geometry": {"type": "Point", "coordinates": [2.32674, 48.832828]}},{"datasetid": "liste_des_sites_des_hotspots_paris_wifi", "recordid": "liste_sites_hotpsots_paris_wifi_geocoded/141", "fields": {"ville": "PARIS", "adresse_complete": "71, Avenue Henri Martin 75016 PARIS France", "nom_site": "Mairie du 16E Arrondissement", "adresse": "71, Avenue Henri Martin", "geo_coordinates": [48.86404, 2.27662], "cp": "75016"}, "geometry": {"type": "Point", "coordinates": [2.27662, 48.86404]}},{"datasetid": "liste_des_sites_des_hotspots_paris_wifi", "recordid": "liste_sites_hotpsots_paris_wifi_geocoded/146", "fields": {"ville": "PARIS", "adresse_complete": "6, Place Gambetta 75020 PARIS France", "nom_site": "Mairie du 20E Arrondissement", "adresse": "6, Place Gambetta", "geo_coordinates": [48.865002, 2.39878], "cp": "75020"}, "geometry": {"type": "Point", "coordinates": [2.39878, 48.865002]}},{"datasetid": "liste_des_sites_des_hotspots_paris_wifi", "recordid": "liste_sites_hotpsots_paris_wifi_geocoded/153", "fields": {"ville": "PARIS", "adresse_complete": "3, Rue De Lisbonne 75008 PARIS France", "nom_site": "Mairie du 8E Arrondissement", "adresse": "3, Rue De Lisbonne", "geo_coordinates": [48.877819, 2.31751], "cp": "75008"}, "geometry": {"type": "Point", "coordinates": [2.31751, 48.877819]}},{"datasetid": "liste_des_sites_des_hotspots_paris_wifi", "recordid": "liste_sites_hotpsots_paris_wifi_geocoded/158", "fields": {"ville": "PARIS", "adresse_complete": "6, Place Des Vosges 75004 PARIS France", "nom_site": "Maison de Victor Hugo", "adresse": "6, Place Des Vosges", "geo_coordinates": [48.854931, 2.36615], "cp": "75004"}, "geometry": {"type": "Point", "coordinates": [2.36615, 48.854931]}},{"datasetid": "liste_des_sites_des_hotspots_paris_wifi", "recordid": "liste_sites_hotpsots_paris_wifi_geocoded/160", "fields": {"ville": "PARIS", "adresse_complete": "7, Square Adanson 75005 PARIS France", "nom_site": "Maison des Associations Du 05eme", "adresse": "7, Square Adanson", "geo_coordinates": [48.83942, 2.35188], "cp": "75005"}, "geometry": {"type": "Point", "coordinates": [2.35188, 48.83942]}},{"datasetid": "liste_des_sites_des_hotspots_paris_wifi", "recordid": "liste_sites_hotpsots_paris_wifi_geocoded/165", "fields": {"ville": "PARIS", "adresse_complete": "13, Rue Caillaux 75013 PARIS France", "nom_site": "Maison des Associations Du 13eme", "adresse": "13, Rue Caillaux", "geo_coordinates": [48.82264, 2.36109], "cp": "75013"}, "geometry": {"type": "Point", "coordinates": [2.36109, 48.82264]}},{"datasetid": "liste_des_sites_des_hotspots_paris_wifi", "recordid": "liste_sites_hotpsots_paris_wifi_geocoded/172", "fields": {"ville": "PARIS", "adresse_complete": "1, Rue Frederick Lemaitre 75020 PARIS France", "nom_site": "Maison des Associations Du 20eme", "adresse": "1, Rue Frederick Lemaitre", "geo_coordinates": [48.873421, 2.391], "cp": "75020"}, "geometry": {"type": "Point", "coordinates": [2.391, 48.873421]}},{"datasetid": "liste_des_sites_des_hotspots_paris_wifi", "recordid": "liste_sites_hotpsots_paris_wifi_geocoded/177", "fields": {"ville": "PARIS", "adresse_complete": "54, Rue Pigalle 75009 PARIS France", "nom_site": "Maison des Associations Du 09eme", "adresse": "54, Rue Pigalle", "geo_coordinates": [48.88224, 2.33697], "cp": "75009"}, "geometry": {"type": "Point", "coordinates": [2.33697, 48.88224]}},{"datasetid": "liste_des_sites_des_hotspots_paris_wifi", "recordid": "liste_sites_hotpsots_paris_wifi_geocoded/184", "fields": {"ville": "PARIS", "adresse_complete": "11, Avenue Du President Wilson 75016 PARIS France", "nom_site": "Musee D'Art Moderne", "adresse": "11, Avenue Du President Wilson", "geo_coordinates": [48.86478, 2.29557], "cp": "75016"}, "geometry": {"type": "Point", "coordinates": [2.29557, 48.86478]}},{"datasetid": "liste_des_sites_des_hotspots_paris_wifi", "recordid": "liste_sites_hotpsots_paris_wifi_geocoded/189", "fields": {"ville": "PARIS", "adresse_complete": "Avenue Charles Risler 75007 PARIS France", "nom_site": "Parc Champs De Mars", "adresse": "Avenue Charles Risler", "geo_coordinates": [48.854603, 2.300178], "cp": "75007"}, "geometry": {"type": "Point", "coordinates": [2.300178, 48.854603]}},{"datasetid": "liste_des_sites_des_hotspots_paris_wifi", "recordid": "liste_sites_hotpsots_paris_wifi_geocoded/191", "fields": {"ville": "PARIS", "adresse_complete": "Rue Cardinet 75017 PARIS France", "nom_site": "Parc Clichy Batignolles", "adresse": "Rue Cardinet", "geo_coordinates": [48.884766, 2.310258], "cp": "75017"}, "geometry": {"type": "Point", "coordinates": [2.310258, 48.884766]}},{"datasetid": "liste_des_sites_des_hotspots_paris_wifi", "recordid": "liste_sites_hotpsots_paris_wifi_geocoded/196", "fields": {"ville": "PARIS", "adresse_complete": "1, Cour Chamonard 75012 PARIS France", "nom_site": "Parc de Bercy", "adresse": "1, Cour Chamonard", "geo_coordinates": [48.835124, 2.41756], "cp": "75012"}, "geometry": {"type": "Point", "coordinates": [2.41756, 48.835124]}},{"datasetid": "liste_des_sites_des_hotspots_paris_wifi", "recordid": "liste_sites_hotpsots_paris_wifi_geocoded/204", "fields": {"ville": "PARIS", "adresse_complete": "1, Rue Botzaris 75019 PARIS France", "nom_site": "Parc des Buttes Chaumont (Bolivar)", "adresse": "1, Rue Botzaris", "geo_coordinates": [48.876972, 2.38117], "cp": "75019"}, "geometry": {"type": "Point", "coordinates": [2.38117, 48.876972]}},{"datasetid": "liste_des_sites_des_hotspots_paris_wifi", "recordid": "liste_sites_hotpsots_paris_wifi_geocoded/209", "fields": {"ville": "PARIS", "adresse_complete": "2, Place Jacques Marette 75015 PARIS France", "nom_site": "Parc Georges Brassens (rotonde)", "adresse": "2, Place Jacques Marette", "geo_coordinates": [48.832722, 2.30069], "cp": "75015"}, "geometry": {"type": "Point", "coordinates": [2.30069, 48.832722]}},{"datasetid": "liste_des_sites_des_hotspots_paris_wifi", "recordid": "liste_sites_hotpsots_paris_wifi_geocoded/211", "fields": {"ville": "PARIS", "adresse_complete": "1, Place De La Republique Dominicaine 75008 PARIS France", "nom_site": "Parc Monceau", "adresse": "1, Place De La Republique Dominicaine", "geo_coordinates": [48.873548, 2.31079], "cp": "75008"}, "geometry": {"type": "Point", "coordinates": [2.31079, 48.873548]}},{"datasetid": "liste_des_sites_des_hotspots_paris_wifi", "recordid": "liste_sites_hotpsots_paris_wifi_geocoded/216", "fields": {"ville": "PARIS", "adresse_complete": "Avenue Edouard Tuck 75008 PARIS France", "nom_site": "Promenade Des Champs Elysees", "adresse": "Avenue Edouard Tuck", "geo_coordinates": [48.865398, 2.317336], "cp": "75008"}, "geometry": {"type": "Point", "coordinates": [2.317336, 48.865398]}},{"datasetid": "liste_des_sites_des_hotspots_paris_wifi", "recordid": "liste_sites_hotpsots_paris_wifi_geocoded/223", "fields": {"ville": "PARIS", "adresse_complete": "92, Rue D'Alleray 75015 PARIS France", "nom_site": "Square Alleray Labrouste", "adresse": "92, Rue D'Alleray", "geo_coordinates": [48.83633, 2.3087], "cp": "75015"}, "geometry": {"type": "Point", "coordinates": [2.3087, 48.83633]}},{"datasetid": "liste_des_sites_des_hotspots_paris_wifi", "recordid": "liste_sites_hotpsots_paris_wifi_geocoded/228", "fields": {"ville": "PARIS", "adresse_complete": "25, Boulevard Richard Lenoir 75011 PARIS France", "nom_site": "Square Breguet Sabin", "adresse": "25, Boulevard Richard Lenoir", "geo_coordinates": [48.85706, 2.37062], "cp": "75011"}, "geometry": {"type": "Point", "coordinates": [2.37062, 48.85706]}},{"datasetid": "liste_des_sites_des_hotspots_paris_wifi", "recordid": "liste_sites_hotpsots_paris_wifi_geocoded/230", "fields": {"ville": "PARIS", "adresse_complete": "159, Rue De Charonne 75011 PARIS France", "nom_site": "Square Charonne", "adresse": "159, Rue De Charonne", "geo_coordinates": [48.855492, 2.38959], "cp": "75011"}, "geometry": {"type": "Point", "coordinates": [2.38959, 48.855492]}},{"datasetid": "liste_des_sites_des_hotspots_paris_wifi", "recordid": "liste_sites_hotpsots_paris_wifi_geocoded/235", "fields": {"ville": "PARIS", "adresse_complete": "Boulevard Vincent Auriol 75013 PARIS France", "nom_site": "Square De La Raffinerie Say", "adresse": "Boulevard Vincent Auriol", "geo_coordinates": [48.831238, 2.356972], "cp": "75013"}, "geometry": {"type": "Point", "coordinates": [2.356972, 48.831238]}},{"datasetid": "liste_des_sites_des_hotspots_paris_wifi", "recordid": "liste_sites_hotpsots_paris_wifi_geocoded/242", "fields": {"ville": "PARIS", "adresse_complete": "2 Passage Dumas 75011 PARIS France", "nom_site": "Square Des Jardiniers", "adresse": "2 Passage Dumas", "geo_coordinates": [48.852027, 2.389877], "cp": "75011"}, "geometry": {"type": "Point", "coordinates": [2.389877, 48.852027]}},{"datasetid": "liste_des_sites_des_hotspots_paris_wifi", "recordid": "liste_sites_hotpsots_paris_wifi_geocoded/247", "fields": {"ville": "PARIS", "adresse_complete": "Rue Saint Martin 75003 PARIS France", "nom_site": "Square Emile Chautemps", "adresse": "Rue Saint Martin", "geo_coordinates": [48.866818, 2.35431], "cp": "75003"}, "geometry": {"type": "Point", "coordinates": [2.35431, 48.866818]}},{"datasetid": "liste_des_sites_des_hotspots_paris_wifi", "recordid": "liste_sites_hotpsots_paris_wifi_geocoded/254", "fields": {"ville": "PARIS", "adresse_complete": "14, Rue Payenne 75003 PARIS France", "nom_site": "Square Georges Cain", "adresse": "14, Rue Payenne", "geo_coordinates": [48.858379, 2.36256], "cp": "75003"}, "geometry": {"type": "Point", "coordinates": [2.36256, 48.858379]}},{"datasetid": "liste_des_sites_des_hotspots_paris_wifi", "recordid": "liste_sites_hotpsots_paris_wifi_geocoded/259", "fields": {"ville": "PARIS", "adresse_complete": "Avenue Jean Aicard 75011 PARIS France", "nom_site": "Square Jean Aicard", "adresse": "Avenue Jean Aicard", "geo_coordinates": [48.865364, 2.38103], "cp": "75011"}, "geometry": {"type": "Point", "coordinates": [2.38103, 48.865364]}},{"datasetid": "liste_des_sites_des_hotspots_paris_wifi", "recordid": "liste_sites_hotpsots_paris_wifi_geocoded/261", "fields": {"ville": "PARIS", "adresse_complete": "Rue Du Cloitre Notre Dame 75004 PARIS France", "nom_site": "Square Jean Xxiii", "adresse": "Rue Du Cloitre Notre Dame", "geo_coordinates": [48.853126, 2.350701], "cp": "75004"}, "geometry": {"type": "Point", "coordinates": [2.350701, 48.853126]}},{"datasetid": "liste_des_sites_des_hotspots_paris_wifi", "recordid": "liste_sites_hotpsots_paris_wifi_geocoded/266", "fields": {"ville": "PARIS", "adresse_complete": "Passage Leon 75018 PARIS France", "nom_site": "Square Leon", "adresse": "Passage Leon", "geo_coordinates": [48.885826, 2.353192], "cp": "75018"}, "geometry": {"type": "Point", "coordinates": [2.353192, 48.885826]}},{"datasetid": "liste_des_sites_des_hotspots_paris_wifi", "recordid": "liste_sites_hotpsots_paris_wifi_geocoded/273", "fields": {"ville": "PARIS", "adresse_complete": "Rue Lacharriere 75011 PARIS France", "nom_site": "Square Maurice Gardette", "adresse": "Rue Lacharriere", "geo_coordinates": [48.861698, 2.377441], "cp": "75011"}, "geometry": {"type": "Point", "coordinates": [2.377441, 48.861698]}},{"datasetid": "liste_des_sites_des_hotspots_paris_wifi", "recordid": "liste_sites_hotpsots_paris_wifi_geocoded/278", "fields": {"ville": "PARIS", "adresse_complete": "20 Rue Monge 75005 PARIS France", "nom_site": "Square Paul Langevin", "adresse": "20 Rue Monge", "geo_coordinates": [48.848438, 2.3502], "cp": "75005"}, "geometry": {"type": "Point", "coordinates": [2.3502, 48.848438]}},